{"type": "FeatureCollection", "features": [{"type": "Feature", "geometry": {"type": "Point", "coordinates": [-1.960759, 6.0475081]}, "properties": {"id": "000b3ffe-f91f-4070-9009-fa79b97ea006", "name": "Sda Clinic", "type": "hospital", "region": "Central", "city": "dominase", "desert_score": 0.4587, "desert_label": "Moderate Desert", "has_icu": false, "has_surgery": false, "has_emergency": false, "accepts_vol": false, "doctors": 0, "beds": 0, "completeness": 0.333, "has_anomaly": false, "color": "#ca8a04"}}, {"type": "Feature", "geometry": {"type": "Point", "coordinates": [-0.1775141, 5.5648366]}, "properties": {"id": "0015f7b7-3d0a-4d83-bfaa-57e4a9b1f3b1", "name": "Diabetes Youth Care", "type": "unknown", "region": "Greater Accra", "city": "osu accra east", "desert_score": 0.395, "desert_label": "Moderate Desert", "has_icu": false, "has_surgery": false, "has_emergency": false, "accepts_vol": false, "doctors": 0, "beds": 30, "completeness": 0.6, "has_anomaly": false, "color": "#ca8a04"}}, {"type": "Feature", "geometry": {"type": "Point", "coordinates": [-0.769811, 6.552795]}, "properties": {"id": "00c68756-f092-4a43-8cec-b5237004d570", "name": "Agyakwa Hospital", "type": "hospital", "region": "Eastern", "city": "nkawkaw", "desert_score": 0.4346, "desert_label": "Moderate Desert", "has_icu": false, "has_surgery": false, "has_emergency": false, "accepts_vol": false, "doctors": 0, "beds": 0, "completeness": 0.333, "has_anomaly": false, "color": "#ca8a04"}}, {"type": "Feature", "geometry": {"type": "Point", "coordinates": [0.994012, 6.233809]}, "properties": {"id": "011ce66a-0ccf-408e-82cc-6c445f323055", "name": "St. Anthony\u2019s Catholic Hospital", "type": "hospital", "region": "Volta", "city": "dzodze", "desert_score": 0.4853, "desert_label": "Moderate Desert", "has_icu": false, "has_surgery": false, "has_emergency": false, "accepts_vol": false, "doctors": 0, "beds": 0, "completeness": 0.392, "has_anomaly": false, "color": "#ca8a04"}}, {"type": "Feature", "geometry": {"type": "Point", "coordinates": [-1.0232, 7.9465]}, "properties": {"id": "01b1aae4-4138-45f4-a445-37da2ae4dcb6", "name": "Imam Ali Spiritual And Herbal Center", "type": "clinic", "region": "Ashanti", "city": "", "desert_score": 0.4656, "desert_label": "Moderate Desert", "has_icu": false, "has_surgery": false, "has_emergency": false, "accepts_vol": false, "doctors": 0, "beds": 0, "completeness": 0.475, "has_anomaly": true, "color": "#ca8a04"}}, {"type": "Feature", "geometry": {"type": "Point", "coordinates": [-1.4933933, 6.6396629]}, "properties": {"id": "02308ae4-0a91-45ec-8068-ddebb58673f0", "name": "St. Anthony Ann Catholic Hospital", "type": "hospital", "region": "Ashanti", "city": "donyina", "desert_score": 0.4656, "desert_label": "Moderate Desert", "has_icu": false, "has_surgery": false, "has_emergency": false, "accepts_vol": false, "doctors": 0, "beds": 0, "completeness": 0.35, "has_anomaly": false, "color": "#ca8a04"}}, {"type": "Feature", "geometry": {"type": "Point", "coordinates": [-1.6233086, 6.6985605]}, "properties": {"id": "0266a3a9-7bf5-4376-8993-ad075c71b966", "name": "Fankyenebra Hospital", "type": "hospital", "region": "Ashanti", "city": "kumasi", "desert_score": 0.4656, "desert_label": "Moderate Desert", "has_icu": false, "has_surgery": true, "has_emergency": false, "accepts_vol": false, "doctors": 0, "beds": 0, "completeness": 0.642, "has_anomaly": false, "color": "#ca8a04"}}, {"type": "Feature", "geometry": {"type": "Point", "coordinates": [-0.0096771, 5.6596409]}, "properties": {"id": "02ad6317-0f57-4f81-bacc-14362a64d88b", "name": "Sakumono Community Multiplex Hospital", "type": "hospital", "region": "Greater Accra", "city": "tema", "desert_score": 0.395, "desert_label": "Moderate Desert", "has_icu": false, "has_surgery": false, "has_emergency": false, "accepts_vol": false, "doctors": 0, "beds": 0, "completeness": 0.642, "has_anomaly": false, "color": "#ca8a04"}}, {"type": "Feature", "geometry": {"type": "Point", "coordinates": [-1.6233086, 6.6985605]}, "properties": {"id": "02c2ffed-8e79-4c18-a76e-d04fe78b1420", "name": "KNUST Hospital", "type": "hospital", "region": "Ashanti", "city": "kumasi", "desert_score": 0.4656, "desert_label": "Moderate Desert", "has_icu": false, "has_surgery": false, "has_emergency": false, "accepts_vol": false, "doctors": 0, "beds": 0, "completeness": 0.292, "has_anomaly": false, "color": "#ca8a04"}}, {"type": "Feature", "geometry": {"type": "Point", "coordinates": [-1.2430793, 5.107467]}, "properties": {"id": "02ef95ff-6666-49de-970f-cf5c8897fda2", "name": "Meland Pharmacy", "type": "pharmacy", "region": "Central", "city": "cape coast", "desert_score": 0.4587, "desert_label": "Moderate Desert", "has_icu": false, "has_surgery": false, "has_emergency": false, "accepts_vol": false, "doctors": 0, "beds": 0, "completeness": 0.475, "has_anomaly": false, "color": "#ca8a04"}}, {"type": "Feature", "geometry": {"type": "Point", "coordinates": [-3.1250276, 6.9467177]}, "properties": {"id": "033207c6-18be-47a7-8acf-e8052dc62ac4", "name": "Boafo Yena Clinic", "type": "clinic", "region": "Western", "city": "ahimakrom", "desert_score": 0.4741, "desert_label": "Moderate Desert", "has_icu": false, "has_surgery": false, "has_emergency": false, "accepts_vol": false, "doctors": 0, "beds": 0, "completeness": 0.35, "has_anomaly": false, "color": "#ca8a04"}}, {"type": "Feature", "geometry": {"type": "Point", "coordinates": [-0.0533245, 5.6637468]}, "properties": {"id": "04236922-57d2-410e-a332-8ae1ad0ff5b6", "name": "Amen Scientific Herbal Hospital \u2013 Klagon Branch", "type": "hospital", "region": "Greater Accra", "city": "klagon", "desert_score": 0.395, "desert_label": "Moderate Desert", "has_icu": false, "has_surgery": false, "has_emergency": false, "accepts_vol": false, "doctors": 0, "beds": 0, "completeness": 0.6, "has_anomaly": false, "color": "#ca8a04"}}, {"type": "Feature", "geometry": {"type": "Point", "coordinates": [-0.8423986, 9.4051992]}, "properties": {"id": "04444937-e92a-4cde-a5eb-e52753fb9926", "name": "Aisha Hospital", "type": "hospital", "region": "Northern", "city": "tamale", "desert_score": 0.4668, "desert_label": "Moderate Desert", "has_icu": false, "has_surgery": true, "has_emergency": true, "accepts_vol": false, "doctors": 0, "beds": 0, "completeness": 0.725, "has_anomaly": false, "color": "#ca8a04"}}, {"type": "Feature", "geometry": {"type": "Point", "coordinates": [-1.0232, 7.9465]}, "properties": {"id": "048f35b1-d3b5-41e1-b603-1e475e03c8cc", "name": "Digestive Diseases Aid", "type": "unknown", "region": "Unknown", "city": "", "desert_score": 0.503, "desert_label": "Moderate Desert", "has_icu": false, "has_surgery": false, "has_emergency": false, "accepts_vol": false, "doctors": 0, "beds": 0, "completeness": 0.267, "has_anomaly": false, "color": "#ca8a04"}}, {"type": "Feature", "geometry": {"type": "Point", "coordinates": [-0.0096771, 5.6596409]}, "properties": {"id": "04bd1ef3-ec3e-4375-8a94-2f5924baabab", "name": "Dreams Fertility Clinic", "type": "clinic", "region": "Greater Accra", "city": "tema", "desert_score": 0.395, "desert_label": "Moderate Desert", "has_icu": false, "has_surgery": false, "has_emergency": false, "accepts_vol": false, "doctors": 20, "beds": 0, "completeness": 0.683, "has_anomaly": false, "color": "#ca8a04"}}, {"type": "Feature", "geometry": {"type": "Point", "coordinates": [-1.355945, 7.3846802]}, "properties": {"id": "05168fc9-cf0e-4bfc-bd48-2e2e03191631", "name": "Ejura District Hospital", "type": "hospital", "region": "Brong-Ahafo", "city": "ejura", "desert_score": 0.3238, "desert_label": "At Risk", "has_icu": false, "has_surgery": false, "has_emergency": false, "accepts_vol": false, "doctors": 0, "beds": 0, "completeness": 0.517, "has_anomaly": false, "color": "#16a34a"}}, {"type": "Feature", "geometry": {"type": "Point", "coordinates": [-1.6233086, 6.6985605]}, "properties": {"id": "057db864-913a-4f4d-9e94-980e8358349e", "name": "Asafo Agyei Hospital Daban", "type": "hospital", "region": "Ashanti", "city": "kumasi", "desert_score": 0.4656, "desert_label": "Moderate Desert", "has_icu": false, "has_surgery": false, "has_emergency": false, "accepts_vol": false, "doctors": 0, "beds": 0, "completeness": 0.333, "has_anomaly": false, "color": "#ca8a04"}}, {"type": "Feature", "geometry": {"type": "Point", "coordinates": [-2.3309226, 7.3384389]}, "properties": {"id": "058ef17a-02c6-4858-854e-f6cee1f2c135", "name": "Heavens Diagnostic Services H-LAB", "type": "clinic", "region": "Brong-Ahafo", "city": "sunyani", "desert_score": 0.3238, "desert_label": "At Risk", "has_icu": false, "has_surgery": false, "has_emergency": false, "accepts_vol": false, "doctors": 0, "beds": 0, "completeness": 0.558, "has_anomaly": false, "color": "#16a34a"}}, {"type": "Feature", "geometry": {"type": "Point", "coordinates": [-2.3309226, 7.3384389]}, "properties": {"id": "0601859b-43ec-417a-92bc-20e7ef25d7a8", "name": "Modern Way Herbal Clinic", "type": "hospital", "region": "Brong-Ahafo", "city": "sunyani", "desert_score": 0.3238, "desert_label": "At Risk", "has_icu": false, "has_surgery": false, "has_emergency": false, "accepts_vol": false, "doctors": 0, "beds": 0, "completeness": 0.558, "has_anomaly": false, "color": "#16a34a"}}, {"type": "Feature", "geometry": {"type": "Point", "coordinates": [-1.6056688, 6.3960627]}, "properties": {"id": "0643b69b-fb41-4fc5-b68e-2f7ae8cbd5a6", "name": "Akrofrom Health Centre - Ghana", "type": "clinic", "region": "Ashanti", "city": "akrofrom", "desert_score": 0.4656, "desert_label": "Moderate Desert", "has_icu": false, "has_surgery": false, "has_emergency": false, "accepts_vol": false, "doctors": 0, "beds": 0, "completeness": 0.35, "has_anomaly": false, "color": "#ca8a04"}}, {"type": "Feature", "geometry": {"type": "Point", "coordinates": [-0.2614572, 6.100334]}, "properties": {"id": "068004d3-266b-4db0-b46e-685cb5929228", "name": "Asokore RCH", "type": "hospital", "region": "Eastern", "city": "koforidua", "desert_score": 0.4346, "desert_label": "Moderate Desert", "has_icu": false, "has_surgery": false, "has_emergency": false, "accepts_vol": false, "doctors": 0, "beds": 0, "completeness": 0.267, "has_anomaly": false, "color": "#ca8a04"}}, {"type": "Feature", "geometry": {"type": "Point", "coordinates": [-0.2012376, 5.5571096]}, "properties": {"id": "06db833f-3808-4b7d-8a9c-f4cdd1dc8ea6", "name": "Cura Healthcare Services", "type": "clinic", "region": "Greater Accra", "city": "accra", "desert_score": 0.395, "desert_label": "Moderate Desert", "has_icu": false, "has_surgery": false, "has_emergency": false, "accepts_vol": false, "doctors": 0, "beds": 0, "completeness": 0.708, "has_anomaly": false, "color": "#ca8a04"}}, {"type": "Feature", "geometry": {"type": "Point", "coordinates": [-0.2012376, 5.5571096]}, "properties": {"id": "070d9f58-2435-4a52-b660-1308367cc36c", "name": "St John's Hospital & Fertility Centre", "type": "hospital", "region": "Greater Accra", "city": "accra", "desert_score": 0.395, "desert_label": "Moderate Desert", "has_icu": false, "has_surgery": false, "has_emergency": false, "accepts_vol": false, "doctors": 0, "beds": 0, "completeness": 0.517, "has_anomaly": false, "color": "#ca8a04"}}, {"type": "Feature", "geometry": {"type": "Point", "coordinates": [-1.0232, 7.9465]}, "properties": {"id": "0715b6ea-08a2-4572-8797-19ff95227ad8", "name": "VALCO HOSPITAL", "type": "hospital", "region": "Greater Accra", "city": "", "desert_score": 0.395, "desert_label": "Moderate Desert", "has_icu": false, "has_surgery": false, "has_emergency": false, "accepts_vol": false, "doctors": 0, "beds": 0, "completeness": 0.333, "has_anomaly": false, "color": "#ca8a04"}}, {"type": "Feature", "geometry": {"type": "Point", "coordinates": [-0.2012376, 5.5571096]}, "properties": {"id": "07629c3c-cdae-4f1c-b585-dbd634fdd60f", "name": "Acres Medical Centre", "type": "hospital", "region": "Greater Accra", "city": "accra", "desert_score": 0.395, "desert_label": "Moderate Desert", "has_icu": false, "has_surgery": false, "has_emergency": false, "accepts_vol": false, "doctors": 0, "beds": 0, "completeness": 0.558, "has_anomaly": false, "color": "#ca8a04"}}, {"type": "Feature", "geometry": {"type": "Point", "coordinates": [-0.8423986, 9.4051992]}, "properties": {"id": "0776a403-82aa-436f-bfbc-b299535f7598", "name": "King's Diagnostics", "type": "clinic", "region": "Northern", "city": "tamale", "desert_score": 0.4668, "desert_label": "Moderate Desert", "has_icu": false, "has_surgery": false, "has_emergency": false, "accepts_vol": false, "doctors": 0, "beds": 0, "completeness": 0.292, "has_anomaly": false, "color": "#ca8a04"}}, {"type": "Feature", "geometry": {"type": "Point", "coordinates": [-1.8974698, 5.0653642]}, "properties": {"id": "07a14429-5150-4ec0-9963-c656db3707f6", "name": "Adum Banso Community Clinic", "type": "clinic", "region": "Western", "city": "adum banso", "desert_score": 0.4741, "desert_label": "Moderate Desert", "has_icu": false, "has_surgery": false, "has_emergency": false, "accepts_vol": false, "doctors": 0, "beds": 0, "completeness": 0.433, "has_anomaly": false, "color": "#ca8a04"}}, {"type": "Feature", "geometry": {"type": "Point", "coordinates": [-0.1677052, 5.6864962]}, "properties": {"id": "07a76608-9bd9-4ffc-a497-656b9dc57eb8", "name": "Doku Memorial Clinic", "type": "hospital", "region": "Greater Accra", "city": "madina", "desert_score": 0.395, "desert_label": "Moderate Desert", "has_icu": false, "has_surgery": false, "has_emergency": false, "accepts_vol": false, "doctors": 0, "beds": 0, "completeness": 0.35, "has_anomaly": false, "color": "#ca8a04"}}, {"type": "Feature", "geometry": {"type": "Point", "coordinates": [-2.5824981, 7.450473]}, "properties": {"id": "07bcacfc-bb6b-4407-b3cd-a67eac92823b", "name": "Berekum Holy Family Hospital", "type": "hospital", "region": "Brong-Ahafo", "city": "berekum", "desert_score": 0.3238, "desert_label": "At Risk", "has_icu": false, "has_surgery": false, "has_emergency": false, "accepts_vol": false, "doctors": 0, "beds": 0, "completeness": 0.433, "has_anomaly": false, "color": "#16a34a"}}, {"type": "Feature", "geometry": {"type": "Point", "coordinates": [-0.0096771, 5.6596409]}, "properties": {"id": "07ede7fe-0f3e-4b1e-b57d-7fa90ed54d80", "name": "New Vision Optical and Eyecare Centre", "type": "clinic", "region": "Greater Accra", "city": "tema", "desert_score": 0.395, "desert_label": "Moderate Desert", "has_icu": false, "has_surgery": false, "has_emergency": false, "accepts_vol": false, "doctors": 0, "beds": 0, "completeness": 0.433, "has_anomaly": false, "color": "#ca8a04"}}, {"type": "Feature", "geometry": {"type": "Point", "coordinates": [-0.2012376, 5.5571096]}, "properties": {"id": "082744f2-7c66-471e-9169-6c780351863f", "name": "SDA Valley View Hospital", "type": "hospital", "region": "Greater Accra", "city": "accra", "desert_score": 0.395, "desert_label": "Moderate Desert", "has_icu": false, "has_surgery": false, "has_emergency": false, "accepts_vol": false, "doctors": 0, "beds": 0, "completeness": 0.558, "has_anomaly": false, "color": "#ca8a04"}}, {"type": "Feature", "geometry": {"type": "Point", "coordinates": [-1.992426, 5.310935]}, "properties": {"id": "083fab2f-2ae3-472a-b789-fce939162d77", "name": "Tarkwa Government Hospital", "type": "hospital", "region": "Western", "city": "tarkwa", "desert_score": 0.4741, "desert_label": "Moderate Desert", "has_icu": false, "has_surgery": false, "has_emergency": false, "accepts_vol": false, "doctors": 0, "beds": 0, "completeness": 0.292, "has_anomaly": false, "color": "#ca8a04"}}, {"type": "Feature", "geometry": {"type": "Point", "coordinates": [-0.2158608, 5.608051]}, "properties": {"id": "0844f480-c975-4819-b053-713d72bcb005", "name": "Egon German Clinic", "type": "clinic", "region": "Greater Accra", "city": "abelenkpe accra", "desert_score": 0.395, "desert_label": "Moderate Desert", "has_icu": false, "has_surgery": false, "has_emergency": false, "accepts_vol": false, "doctors": 0, "beds": 0, "completeness": 0.292, "has_anomaly": false, "color": "#ca8a04"}}, {"type": "Feature", "geometry": {"type": "Point", "coordinates": [-1.6233086, 6.6985605]}, "properties": {"id": "08761e7c-7206-414c-b221-6d4bd3e85d17", "name": "Trustcare Hospital. South Suntreso, Kumasi", "type": "hospital", "region": "Ashanti", "city": "kumasi", "desert_score": 0.4656, "desert_label": "Moderate Desert", "has_icu": false, "has_surgery": false, "has_emergency": false, "accepts_vol": false, "doctors": 0, "beds": 0, "completeness": 0.292, "has_anomaly": false, "color": "#ca8a04"}}, {"type": "Feature", "geometry": {"type": "Point", "coordinates": [-1.6716452, 6.3454587]}, "properties": {"id": "088cbf1a-8009-4d36-8196-09269469cd34", "name": "St Peter's Hospital, Jacobu", "type": "hospital", "region": "Ashanti", "city": "jacobu", "desert_score": 0.4656, "desert_label": "Moderate Desert", "has_icu": false, "has_surgery": false, "has_emergency": false, "accepts_vol": false, "doctors": 0, "beds": 0, "completeness": 0.475, "has_anomaly": false, "color": "#ca8a04"}}, {"type": "Feature", "geometry": {"type": "Point", "coordinates": [-1.0232, 7.9465]}, "properties": {"id": "08fce5f3-293c-4283-b757-a5c1479fa601", "name": "Emofra Africa", "type": "unknown", "region": "Upper West", "city": "", "desert_score": 0.5647, "desert_label": "Severe Desert", "has_icu": false, "has_surgery": false, "has_emergency": false, "accepts_vol": false, "doctors": 0, "beds": 0, "completeness": 0.35, "has_anomaly": false, "color": "#ea580c"}}, {"type": "Feature", "geometry": {"type": "Point", "coordinates": [-0.029529, 5.694385]}, "properties": {"id": "09102117-1a73-484f-8029-fdd57e5fdb97", "name": "Integrated Diagnostic Solutions", "type": "clinic", "region": "Greater Accra", "city": "ashaiman", "desert_score": 0.395, "desert_label": "Moderate Desert", "has_icu": false, "has_surgery": false, "has_emergency": false, "accepts_vol": false, "doctors": 0, "beds": 0, "completeness": 0.667, "has_anomaly": false, "color": "#ca8a04"}}, {"type": "Feature", "geometry": {"type": "Point", "coordinates": [-0.029529, 5.694385]}, "properties": {"id": "0921da15-6b2f-4fde-afe8-4b6415f23b4f", "name": "Mother of God Hospital", "type": "hospital", "region": "Greater Accra", "city": "ashaiman", "desert_score": 0.395, "desert_label": "Moderate Desert", "has_icu": false, "has_surgery": false, "has_emergency": false, "accepts_vol": false, "doctors": 0, "beds": 120, "completeness": 0.792, "has_anomaly": false, "color": "#ca8a04"}}, {"type": "Feature", "geometry": {"type": "Point", "coordinates": [-0.2012376, 5.5571096]}, "properties": {"id": "0966382e-4651-49c8-bc68-99eabd0b51d8", "name": "Medical Lab", "type": "clinic", "region": "Greater Accra", "city": "accra", "desert_score": 0.395, "desert_label": "Moderate Desert", "has_icu": false, "has_surgery": false, "has_emergency": false, "accepts_vol": false, "doctors": 0, "beds": 0, "completeness": 0.6, "has_anomaly": false, "color": "#ca8a04"}}, {"type": "Feature", "geometry": {"type": "Point", "coordinates": [-0.2012376, 5.5571096]}, "properties": {"id": "09723e74-3d0b-4131-963f-58d8560b742c", "name": "All Smile Dental & Paediatric Centre", "type": "dentist", "region": "Greater Accra", "city": "accra", "desert_score": 0.395, "desert_label": "Moderate Desert", "has_icu": false, "has_surgery": false, "has_emergency": false, "accepts_vol": false, "doctors": 0, "beds": 0, "completeness": 0.558, "has_anomaly": false, "color": "#ca8a04"}}, {"type": "Feature", "geometry": {"type": "Point", "coordinates": [-0.2012376, 5.5571096]}, "properties": {"id": "09e2910f-47ab-42f2-b20d-b13d9182d5aa", "name": "LittleBigSouls Ghana", "type": "unknown", "region": "Greater Accra", "city": "accra", "desert_score": 0.395, "desert_label": "Moderate Desert", "has_icu": true, "has_surgery": false, "has_emergency": false, "accepts_vol": false, "doctors": 0, "beds": 0, "completeness": 0.517, "has_anomaly": false, "color": "#ca8a04"}}, {"type": "Feature", "geometry": {"type": "Point", "coordinates": [-0.2012376, 5.5571096]}, "properties": {"id": "0a5dd5ba-daa7-444e-bcab-517514533cc9", "name": "PapSon Medical Diagnostic Centre", "type": "clinic", "region": "Greater Accra", "city": "accra", "desert_score": 0.395, "desert_label": "Moderate Desert", "has_icu": false, "has_surgery": false, "has_emergency": false, "accepts_vol": false, "doctors": 0, "beds": 0, "completeness": 0.558, "has_anomaly": false, "color": "#ca8a04"}}, {"type": "Feature", "geometry": {"type": "Point", "coordinates": [-0.2012376, 5.5571096]}, "properties": {"id": "0a7f56c9-51f9-45a8-ba0f-236a5295bebe", "name": "Newstar Ear Centre", "type": "clinic", "region": "Greater Accra", "city": "accra", "desert_score": 0.395, "desert_label": "Moderate Desert", "has_icu": false, "has_surgery": false, "has_emergency": false, "accepts_vol": false, "doctors": 0, "beds": 0, "completeness": 0.558, "has_anomaly": false, "color": "#ca8a04"}}, {"type": "Feature", "geometry": {"type": "Point", "coordinates": [-0.2012376, 5.5571096]}, "properties": {"id": "0a87f8ea-5062-4b06-b156-6738f8133a8b", "name": "Integrated Diagnostic Solutions", "type": "clinic", "region": "Greater Accra", "city": "accra", "desert_score": 0.395, "desert_label": "Moderate Desert", "has_icu": false, "has_surgery": false, "has_emergency": false, "accepts_vol": false, "doctors": 0, "beds": 0, "completeness": 0.683, "has_anomaly": false, "color": "#ca8a04"}}, {"type": "Feature", "geometry": {"type": "Point", "coordinates": [-2.3334987, 6.1504754]}, "properties": {"id": "0a8f1f40-5c70-4ef7-8fed-2d085f13f7f8", "name": "Fr. Thomas Alan Rooney Memorial Catholic Hospital", "type": "hospital", "region": "Western", "city": "asankrangua", "desert_score": 0.4741, "desert_label": "Moderate Desert", "has_icu": false, "has_surgery": false, "has_emergency": false, "accepts_vol": false, "doctors": 0, "beds": 0, "completeness": 0.35, "has_anomaly": false, "color": "#ca8a04"}}, {"type": "Feature", "geometry": {"type": "Point", "coordinates": [-0.2012376, 5.5571096]}, "properties": {"id": "0a969b7e-b109-4705-9741-00da50c5167c", "name": "National Cardiothoracic Centre of the Korle Bu Teaching Hospital", "type": "hospital", "region": "Greater Accra", "city": "accra", "desert_score": 0.395, "desert_label": "Moderate Desert", "has_icu": false, "has_surgery": true, "has_emergency": false, "accepts_vol": false, "doctors": 0, "beds": 0, "completeness": 0.583, "has_anomaly": false, "color": "#ca8a04"}}, {"type": "Feature", "geometry": {"type": "Point", "coordinates": [-1.6233086, 6.6985605]}, "properties": {"id": "0bd57053-30a9-4ab1-994c-f415f657c88b", "name": "Akan Herbal Treatment Center", "type": "clinic", "region": "Ashanti", "city": "kumasi", "desert_score": 0.4656, "desert_label": "Moderate Desert", "has_icu": false, "has_surgery": false, "has_emergency": false, "accepts_vol": false, "doctors": 0, "beds": 0, "completeness": 0.642, "has_anomaly": false, "color": "#ca8a04"}}, {"type": "Feature", "geometry": {"type": "Point", "coordinates": [-0.2012376, 5.5571096]}, "properties": {"id": "0c7b4716-12a7-413e-af4c-c7b1c499fd3c", "name": "Madina Polyclinic Kekele", "type": "clinic", "region": "Greater Accra", "city": "accra", "desert_score": 0.395, "desert_label": "Moderate Desert", "has_icu": false, "has_surgery": false, "has_emergency": false, "accepts_vol": false, "doctors": 0, "beds": 0, "completeness": 0.558, "has_anomaly": false, "color": "#ca8a04"}}, {"type": "Feature", "geometry": {"type": "Point", "coordinates": [-0.2012376, 5.5571096]}, "properties": {"id": "0cd08b82-6a41-4b9a-9980-79658c3a6e48", "name": "Ga South Municipal Hospital", "type": "hospital", "region": "Greater Accra", "city": "accra", "desert_score": 0.395, "desert_label": "Moderate Desert", "has_icu": false, "has_surgery": false, "has_emergency": false, "accepts_vol": false, "doctors": 0, "beds": 0, "completeness": 0.392, "has_anomaly": false, "color": "#ca8a04"}}, {"type": "Feature", "geometry": {"type": "Point", "coordinates": [-0.2012376, 5.5571096]}, "properties": {"id": "0cf2417d-439d-4afc-bafe-2e98bf56e280", "name": "The Specialist Dental Practice", "type": "dentist", "region": "Greater Accra", "city": "accra", "desert_score": 0.395, "desert_label": "Moderate Desert", "has_icu": false, "has_surgery": false, "has_emergency": false, "accepts_vol": false, "doctors": 0, "beds": 0, "completeness": 0.375, "has_anomaly": false, "color": "#ca8a04"}}, {"type": "Feature", "geometry": {"type": "Point", "coordinates": [-0.2012376, 5.5571096]}, "properties": {"id": "0d076fd2-12de-41b5-a40c-76d56eb7e6c1", "name": "Crown Medical Centre Ghana", "type": "hospital", "region": "Greater Accra", "city": "accra", "desert_score": 0.395, "desert_label": "Moderate Desert", "has_icu": false, "has_surgery": false, "has_emergency": false, "accepts_vol": false, "doctors": 0, "beds": 0, "completeness": 0.517, "has_anomaly": false, "color": "#ca8a04"}}, {"type": "Feature", "geometry": {"type": "Point", "coordinates": [-1.7781121, 5.9608498]}, "properties": {"id": "0e03b1d5-4691-4671-968a-215fd301be53", "name": "St. Francis Xavier Hospital", "type": "hospital", "region": "Central", "city": "assin foso", "desert_score": 0.4587, "desert_label": "Moderate Desert", "has_icu": false, "has_surgery": false, "has_emergency": true, "accepts_vol": false, "doctors": 0, "beds": 156, "completeness": 0.767, "has_anomaly": false, "color": "#ca8a04"}}, {"type": "Feature", "geometry": {"type": "Point", "coordinates": [-2.5824981, 7.450473]}, "properties": {"id": "0e062919-50a5-472a-9e8f-1bab61d81bbd", "name": "Happy Hospital", "type": "hospital", "region": "Brong-Ahafo", "city": "berekum", "desert_score": 0.3238, "desert_label": "At Risk", "has_icu": false, "has_surgery": false, "has_emergency": false, "accepts_vol": false, "doctors": 0, "beds": 0, "completeness": 0.433, "has_anomaly": false, "color": "#16a34a"}}, {"type": "Feature", "geometry": {"type": "Point", "coordinates": [-0.2012376, 5.5571096]}, "properties": {"id": "0e4675f7-01d5-463c-98f0-42dfcf56493f", "name": "Marie Stopes Ghana, 26 Akwei Street, Tesano, Accra, Ghana", "type": "clinic", "region": "Greater Accra", "city": "accra", "desert_score": 0.395, "desert_label": "Moderate Desert", "has_icu": false, "has_surgery": false, "has_emergency": false, "accepts_vol": false, "doctors": 0, "beds": 0, "completeness": 0.542, "has_anomaly": false, "color": "#ca8a04"}}, {"type": "Feature", "geometry": {"type": "Point", "coordinates": [-1.7519316, 4.887401]}, "properties": {"id": "0e960ddf-1b7a-4846-8981-4c3d44189824", "name": "Women's Health Clinic - House # opposite zenith hotel Takoradi, Takoradi, Ghana", "type": "clinic", "region": "Western", "city": "takoradi", "desert_score": 0.4741, "desert_label": "Moderate Desert", "has_icu": false, "has_surgery": false, "has_emergency": false, "accepts_vol": false, "doctors": 0, "beds": 0, "completeness": 0.392, "has_anomaly": false, "color": "#ca8a04"}}, {"type": "Feature", "geometry": {"type": "Point", "coordinates": [-0.657934, 5.8610103]}, "properties": {"id": "0f07f83d-159f-4603-936c-bdd8d17269a6", "name": "DomLey Herbal Center", "type": "clinic", "region": "Eastern", "city": "asamankese", "desert_score": 0.4346, "desert_label": "Moderate Desert", "has_icu": false, "has_surgery": false, "has_emergency": false, "accepts_vol": false, "doctors": 0, "beds": 0, "completeness": 0.475, "has_anomaly": false, "color": "#ca8a04"}}, {"type": "Feature", "geometry": {"type": "Point", "coordinates": [-0.2012376, 5.5571096]}, "properties": {"id": "0f69caf3-8dd2-4af7-838d-b9ab3005c2e6", "name": "Mark's Dental Clinic at Valco Towers", "type": "clinic", "region": "Greater Accra", "city": "accra", "desert_score": 0.395, "desert_label": "Moderate Desert", "has_icu": false, "has_surgery": false, "has_emergency": false, "accepts_vol": false, "doctors": 0, "beds": 0, "completeness": 0.433, "has_anomaly": false, "color": "#ca8a04"}}, {"type": "Feature", "geometry": {"type": "Point", "coordinates": [-0.2012376, 5.5571096]}, "properties": {"id": "0fa1790a-7a38-494a-8806-cedc0f36bc97", "name": "Core Care Diagnostic Centre", "type": "clinic", "region": "Greater Accra", "city": "accra", "desert_score": 0.395, "desert_label": "Moderate Desert", "has_icu": false, "has_surgery": false, "has_emergency": false, "accepts_vol": false, "doctors": 0, "beds": 0, "completeness": 0.642, "has_anomaly": false, "color": "#ca8a04"}}, {"type": "Feature", "geometry": {"type": "Point", "coordinates": [-1.6233086, 6.6985605]}, "properties": {"id": "0fac7b4a-8916-4e7c-9cda-5827335c328c", "name": "Peace And Love Hospital", "type": "hospital", "region": "Ashanti", "city": "kumasi", "desert_score": 0.4656, "desert_label": "Moderate Desert", "has_icu": false, "has_surgery": false, "has_emergency": false, "accepts_vol": false, "doctors": 0, "beds": 0, "completeness": 0.333, "has_anomaly": false, "color": "#ca8a04"}}, {"type": "Feature", "geometry": {"type": "Point", "coordinates": [-0.2012376, 5.5571096]}, "properties": {"id": "10541f6d-5d7c-4f84-b5b4-a8feaeea5c54", "name": "Claron Health International \u2013 No 2, Dodi Link, Between Volta Street and Akosombo Road, Airport Residential, Accra, Ghana", "type": "dentist", "region": "Greater Accra", "city": "accra", "desert_score": 0.395, "desert_label": "Moderate Desert", "has_icu": false, "has_surgery": true, "has_emergency": true, "accepts_vol": false, "doctors": 24, "beds": 0, "completeness": 0.85, "has_anomaly": false, "color": "#ca8a04"}}, {"type": "Feature", "geometry": {"type": "Point", "coordinates": [-0.2012376, 5.5571096]}, "properties": {"id": "109cae44-ddb0-4a05-a9bc-9b1538a87ad5", "name": "Bemuah Royal Hospital", "type": "hospital", "region": "Greater Accra", "city": "accra", "desert_score": 0.395, "desert_label": "Moderate Desert", "has_icu": true, "has_surgery": false, "has_emergency": true, "accepts_vol": false, "doctors": 0, "beds": 30, "completeness": 0.767, "has_anomaly": false, "color": "#ca8a04"}}, {"type": "Feature", "geometry": {"type": "Point", "coordinates": [-2.0054888, 5.5686681]}, "properties": {"id": "10af5544-bddc-454b-ad1f-a73212486815", "name": "St. Edward Clinic", "type": "hospital", "region": "Western", "city": "bogoso", "desert_score": 0.4741, "desert_label": "Moderate Desert", "has_icu": false, "has_surgery": false, "has_emergency": false, "accepts_vol": false, "doctors": 0, "beds": 12, "completeness": 0.517, "has_anomaly": false, "color": "#ca8a04"}}, {"type": "Feature", "geometry": {"type": "Point", "coordinates": [-0.0096771, 5.6596409]}, "properties": {"id": "1217e482-a713-427b-8523-b8a8e1ee50e7", "name": "Suncity Medical Centre", "type": "hospital", "region": "Greater Accra", "city": "tema", "desert_score": 0.395, "desert_label": "Moderate Desert", "has_icu": false, "has_surgery": false, "has_emergency": false, "accepts_vol": false, "doctors": 0, "beds": 0, "completeness": 0.6, "has_anomaly": false, "color": "#ca8a04"}}, {"type": "Feature", "geometry": {"type": "Point", "coordinates": [-0.2012376, 5.5571096]}, "properties": {"id": "121a85c7-24d5-43a8-b946-d7ae4a3ac8a5", "name": "Executiveheartcentre_Social", "type": "clinic", "region": "Greater Accra", "city": "accra", "desert_score": 0.395, "desert_label": "Moderate Desert", "has_icu": false, "has_surgery": false, "has_emergency": false, "accepts_vol": false, "doctors": 0, "beds": 0, "completeness": 0.6, "has_anomaly": false, "color": "#ca8a04"}}, {"type": "Feature", "geometry": {"type": "Point", "coordinates": [-0.2164329, 5.5349543]}, "properties": {"id": "1230da44-0d9d-467f-aaaf-f0dd77564f01", "name": "Fire Medical Centre - Ghana", "type": "clinic", "region": "Greater Accra", "city": "james town", "desert_score": 0.395, "desert_label": "Moderate Desert", "has_icu": false, "has_surgery": false, "has_emergency": false, "accepts_vol": false, "doctors": 0, "beds": 0, "completeness": 0.433, "has_anomaly": false, "color": "#ca8a04"}}, {"type": "Feature", "geometry": {"type": "Point", "coordinates": [-1.6233086, 6.6985605]}, "properties": {"id": "12485540-65f5-4c36-9f33-47eac73633fc", "name": "Heal Komfo Anokye", "type": "unknown", "region": "Ashanti", "city": "kumasi", "desert_score": 0.4656, "desert_label": "Moderate Desert", "has_icu": false, "has_surgery": false, "has_emergency": false, "accepts_vol": false, "doctors": 0, "beds": 0, "completeness": 0.25, "has_anomaly": false, "color": "#ca8a04"}}, {"type": "Feature", "geometry": {"type": "Point", "coordinates": [-1.0232, 7.9465]}, "properties": {"id": "127a8464-7035-42aa-aa87-5a094953660b", "name": "The Community Hospital Ashongman", "type": "hospital", "region": "Volta", "city": "", "desert_score": 0.4853, "desert_label": "Moderate Desert", "has_icu": false, "has_surgery": false, "has_emergency": false, "accepts_vol": false, "doctors": 0, "beds": 0, "completeness": 0.433, "has_anomaly": false, "color": "#ca8a04"}}, {"type": "Feature", "geometry": {"type": "Point", "coordinates": [-1.7519316, 4.887401]}, "properties": {"id": "1294e16b-9aed-48a5-803f-d53928e7a40e", "name": "Ghana Rubber Estate Clinic", "type": "clinic", "region": "Western", "city": "takoradi", "desert_score": 0.4741, "desert_label": "Moderate Desert", "has_icu": false, "has_surgery": false, "has_emergency": false, "accepts_vol": false, "doctors": 0, "beds": 0, "completeness": 0.475, "has_anomaly": false, "color": "#ca8a04"}}, {"type": "Feature", "geometry": {"type": "Point", "coordinates": [-0.2012376, 5.5571096]}, "properties": {"id": "13bfd31c-29a4-490f-bbbf-028d92dff234", "name": "Beulah Land International Hospital", "type": "hospital", "region": "Greater Accra", "city": "accra", "desert_score": 0.395, "desert_label": "Moderate Desert", "has_icu": false, "has_surgery": false, "has_emergency": false, "accepts_vol": false, "doctors": 0, "beds": 0, "completeness": 0.75, "has_anomaly": false, "color": "#ca8a04"}}, {"type": "Feature", "geometry": {"type": "Point", "coordinates": [0.0508987, 6.2697987]}, "properties": {"id": "13c19286-8dc4-46fb-8b9f-55acbc834bef", "name": "Kings and Queens Medical University Teaching Hospital", "type": "hospital", "region": "Eastern", "city": "akosombo", "desert_score": 0.4346, "desert_label": "Moderate Desert", "has_icu": true, "has_surgery": true, "has_emergency": true, "accepts_vol": false, "doctors": 0, "beds": 0, "completeness": 0.558, "has_anomaly": false, "color": "#ca8a04"}}, {"type": "Feature", "geometry": {"type": "Point", "coordinates": [-1.0232, 7.9465]}, "properties": {"id": "13cdd952-dbd4-4d7a-b1d7-c22ea5a88672", "name": "LawFam Nutritional Clinic - 47 Fertilizer Road, Teshie, Ghana", "type": "clinic", "region": "Unknown", "city": "", "desert_score": 0.503, "desert_label": "Moderate Desert", "has_icu": false, "has_surgery": false, "has_emergency": false, "accepts_vol": false, "doctors": 0, "beds": 0, "completeness": 0.6, "has_anomaly": false, "color": "#ca8a04"}}, {"type": "Feature", "geometry": {"type": "Point", "coordinates": [-0.2012376, 5.5571096]}, "properties": {"id": "145dfd71-6a15-4747-88cf-d5722965584a", "name": "St. Luke's Clinic", "type": "clinic", "region": "Greater Accra", "city": "accra", "desert_score": 0.395, "desert_label": "Moderate Desert", "has_icu": false, "has_surgery": false, "has_emergency": false, "accepts_vol": false, "doctors": 0, "beds": 0, "completeness": 0.375, "has_anomaly": false, "color": "#ca8a04"}}, {"type": "Feature", "geometry": {"type": "Point", "coordinates": [-0.2012376, 5.5571096]}, "properties": {"id": "1548dac9-56f3-4c4f-8588-0c3181202498", "name": "Koampaul Healthcare", "type": "clinic", "region": "Greater Accra", "city": "accra", "desert_score": 0.395, "desert_label": "Moderate Desert", "has_icu": false, "has_surgery": false, "has_emergency": false, "accepts_vol": false, "doctors": 0, "beds": 0, "completeness": 0.35, "has_anomaly": false, "color": "#ca8a04"}}, {"type": "Feature", "geometry": {"type": "Point", "coordinates": [-0.1046646, 5.8800281]}, "properties": {"id": "15cc5dd9-6b22-4649-8780-16fa10f0d32c", "name": "Dangme WEST Hospital Complex", "type": "hospital", "region": "Greater Accra", "city": "dodowa", "desert_score": 0.395, "desert_label": "Moderate Desert", "has_icu": false, "has_surgery": false, "has_emergency": false, "accepts_vol": false, "doctors": 0, "beds": 0, "completeness": 0.642, "has_anomaly": false, "color": "#ca8a04"}}, {"type": "Feature", "geometry": {"type": "Point", "coordinates": [-0.0096771, 5.6596409]}, "properties": {"id": "16239f68-2f39-4f7d-a3b4-2789b6693bf8", "name": "Tema Polyclinic", "type": "clinic", "region": "Greater Accra", "city": "tema", "desert_score": 0.395, "desert_label": "Moderate Desert", "has_icu": false, "has_surgery": false, "has_emergency": false, "accepts_vol": false, "doctors": 0, "beds": 0, "completeness": 0.392, "has_anomaly": false, "color": "#ca8a04"}}, {"type": "Feature", "geometry": {"type": "Point", "coordinates": [-0.0703851, 5.6011385]}, "properties": {"id": "16bf8114-9d0c-4a1c-80b9-ae4c9614e6a1", "name": "Christian Medical Dental Services", "type": "dentist", "region": "Greater Accra", "city": "nungua", "desert_score": 0.395, "desert_label": "Moderate Desert", "has_icu": false, "has_surgery": true, "has_emergency": false, "accepts_vol": false, "doctors": 0, "beds": 0, "completeness": 0.558, "has_anomaly": false, "color": "#ca8a04"}}, {"type": "Feature", "geometry": {"type": "Point", "coordinates": [-1.6233086, 6.6985605]}, "properties": {"id": "16da4002-4cf3-4a4a-884e-3fc312d7ead7", "name": "Kings Dental Clinic", "type": "clinic", "region": "Ashanti", "city": "kumasi", "desert_score": 0.4656, "desert_label": "Moderate Desert", "has_icu": false, "has_surgery": false, "has_emergency": false, "accepts_vol": false, "doctors": 0, "beds": 0, "completeness": 0.475, "has_anomaly": false, "color": "#ca8a04"}}, {"type": "Feature", "geometry": {"type": "Point", "coordinates": [-0.2012376, 5.5571096]}, "properties": {"id": "172b010a-4308-4dd1-b673-a86003f78f17", "name": "Catholic Health Service Trust, Ghana", "type": "unknown", "region": "Greater Accra", "city": "accra", "desert_score": 0.395, "desert_label": "Moderate Desert", "has_icu": false, "has_surgery": false, "has_emergency": false, "accepts_vol": false, "doctors": 0, "beds": 0, "completeness": 0.475, "has_anomaly": false, "color": "#ca8a04"}}, {"type": "Feature", "geometry": {"type": "Point", "coordinates": [-0.232884, 5.6554227]}, "properties": {"id": "1746d914-9aef-44e4-bf3f-584d90a3c8b8", "name": "Chrispod Hospital & Diagnostic Center", "type": "hospital", "region": "Greater Accra", "city": "dome", "desert_score": 0.395, "desert_label": "Moderate Desert", "has_icu": false, "has_surgery": true, "has_emergency": true, "accepts_vol": false, "doctors": 3, "beds": 120, "completeness": 0.892, "has_anomaly": false, "color": "#ca8a04"}}, {"type": "Feature", "geometry": {"type": "Point", "coordinates": [-0.2012376, 5.5571096]}, "properties": {"id": "175794d5-9cc4-4237-9511-b751a602b0b9", "name": "Jambo Medical Centre", "type": "hospital", "region": "Greater Accra", "city": "accra", "desert_score": 0.395, "desert_label": "Moderate Desert", "has_icu": false, "has_surgery": false, "has_emergency": true, "accepts_vol": false, "doctors": 0, "beds": 0, "completeness": 0.75, "has_anomaly": false, "color": "#ca8a04"}}, {"type": "Feature", "geometry": {"type": "Point", "coordinates": [0.0033018, 5.762487]}, "properties": {"id": "17780ce8-96aa-42d5-b1ba-5a6d019d3388", "name": "Barnor Memorial Hospital", "type": "hospital", "region": "Western", "city": "mataheko", "desert_score": 0.4741, "desert_label": "Moderate Desert", "has_icu": false, "has_surgery": false, "has_emergency": false, "accepts_vol": false, "doctors": 0, "beds": 0, "completeness": 0.6, "has_anomaly": false, "color": "#ca8a04"}}, {"type": "Feature", "geometry": {"type": "Point", "coordinates": [-0.2012376, 5.5571096]}, "properties": {"id": "1781560b-299b-4664-9811-86d41928bc96", "name": "Nunana Clinic", "type": "clinic", "region": "Greater Accra", "city": "accra", "desert_score": 0.395, "desert_label": "Moderate Desert", "has_icu": false, "has_surgery": true, "has_emergency": false, "accepts_vol": false, "doctors": 0, "beds": 0, "completeness": 0.642, "has_anomaly": false, "color": "#ca8a04"}}, {"type": "Feature", "geometry": {"type": "Point", "coordinates": [-0.0096771, 5.6596409]}, "properties": {"id": "1854b748-b32c-457c-8f2d-f1241b3868f2", "name": "AIH lab & X-ray Center", "type": "clinic", "region": "Greater Accra", "city": "tema", "desert_score": 0.395, "desert_label": "Moderate Desert", "has_icu": false, "has_surgery": false, "has_emergency": false, "accepts_vol": false, "doctors": 0, "beds": 0, "completeness": 0.725, "has_anomaly": false, "color": "#ca8a04"}}, {"type": "Feature", "geometry": {"type": "Point", "coordinates": [-0.3306792, 5.5792263]}, "properties": {"id": "185ca2e3-b0fd-41b1-9ab0-970d738fe423", "name": "Medikah Diagnostic Services -- Weija-Gbawe Municipal District", "type": "clinic", "region": "Greater Accra", "city": "weija", "desert_score": 0.395, "desert_label": "Moderate Desert", "has_icu": false, "has_surgery": false, "has_emergency": false, "accepts_vol": false, "doctors": 0, "beds": 0, "completeness": 0.75, "has_anomaly": false, "color": "#ca8a04"}}, {"type": "Feature", "geometry": {"type": "Point", "coordinates": [-0.2012376, 5.5571096]}, "properties": {"id": "187b1042-501e-4c0d-ba61-8d7b25ae2a0b", "name": "Mary Lucy Hospital And Fertility Centre", "type": "hospital", "region": "Greater Accra", "city": "accra", "desert_score": 0.395, "desert_label": "Moderate Desert", "has_icu": false, "has_surgery": false, "has_emergency": false, "accepts_vol": false, "doctors": 0, "beds": 0, "completeness": 0.475, "has_anomaly": false, "color": "#ca8a04"}}, {"type": "Feature", "geometry": {"type": "Point", "coordinates": [-1.6910308, 6.6968818]}, "properties": {"id": "18df567e-1083-4088-b275-b1a35283f0d2", "name": "University of Education College of Technology Clinic", "type": "clinic", "region": "Ashanti", "city": "tanoso", "desert_score": 0.4656, "desert_label": "Moderate Desert", "has_icu": false, "has_surgery": false, "has_emergency": false, "accepts_vol": false, "doctors": 0, "beds": 0, "completeness": 0.433, "has_anomaly": false, "color": "#ca8a04"}}, {"type": "Feature", "geometry": {"type": "Point", "coordinates": [-0.2012376, 5.5571096]}, "properties": {"id": "1901b40c-1aa8-4ee3-85ca-e2784deac005", "name": "Hijama Herbal Clinic (Accra Lapaz)", "type": "clinic", "region": "Greater Accra", "city": "accra", "desert_score": 0.395, "desert_label": "Moderate Desert", "has_icu": false, "has_surgery": false, "has_emergency": false, "accepts_vol": false, "doctors": 0, "beds": 0, "completeness": 0.642, "has_anomaly": false, "color": "#ca8a04"}}, {"type": "Feature", "geometry": {"type": "Point", "coordinates": [-0.0096771, 5.6596409]}, "properties": {"id": "1905a595-277e-4204-817e-9dac3f2d30f7", "name": "Empat-Caiquo Medical Centre - Adjacent SOS Children's Village, Hermann-Gmeiner Road, Tema, Ghana", "type": "hospital", "region": "Greater Accra", "city": "tema", "desert_score": 0.395, "desert_label": "Moderate Desert", "has_icu": false, "has_surgery": false, "has_emergency": false, "accepts_vol": false, "doctors": 0, "beds": 0, "completeness": 0.517, "has_anomaly": false, "color": "#ca8a04"}}, {"type": "Feature", "geometry": {"type": "Point", "coordinates": [-1.6233086, 6.6985605]}, "properties": {"id": "195f024b-76c1-463f-a7de-d26cda098251", "name": "Jaylex Health and Eye Consult", "type": "clinic", "region": "Ashanti", "city": "kumasi", "desert_score": 0.4656, "desert_label": "Moderate Desert", "has_icu": false, "has_surgery": false, "has_emergency": false, "accepts_vol": false, "doctors": 0, "beds": 0, "completeness": 0.433, "has_anomaly": false, "color": "#ca8a04"}}, {"type": "Feature", "geometry": {"type": "Point", "coordinates": [-0.2012376, 5.5571096]}, "properties": {"id": "1a0dfcdb-bf42-401a-90ba-637acf3e506e", "name": "Springfield Dental Clinic Ghana", "type": "dentist", "region": "Greater Accra", "city": "accra", "desert_score": 0.395, "desert_label": "Moderate Desert", "has_icu": false, "has_surgery": true, "has_emergency": false, "accepts_vol": false, "doctors": 0, "beds": 0, "completeness": 0.458, "has_anomaly": false, "color": "#ca8a04"}}, {"type": "Feature", "geometry": {"type": "Point", "coordinates": [-2.6597228, 6.3971615]}, "properties": {"id": "1a0f4da9-43d8-4714-9cc5-915cc04c7f24", "name": "St. John of God Hospital (ASAFO)", "type": "hospital", "region": "Western North", "city": "sefwi asafo", "desert_score": 0.4665, "desert_label": "Moderate Desert", "has_icu": false, "has_surgery": true, "has_emergency": true, "accepts_vol": false, "doctors": 0, "beds": 0, "completeness": 0.583, "has_anomaly": false, "color": "#ca8a04"}}, {"type": "Feature", "geometry": {"type": "Point", "coordinates": [-0.9989695, 5.581607]}, "properties": {"id": "1b1791e9-1a51-4fd0-85d3-0a990b16ecd6", "name": "Our Lady of Grace Hospital", "type": "hospital", "region": "Central", "city": "breman asikuma", "desert_score": 0.4587, "desert_label": "Moderate Desert", "has_icu": false, "has_surgery": false, "has_emergency": true, "accepts_vol": false, "doctors": 0, "beds": 0, "completeness": 0.558, "has_anomaly": false, "color": "#ca8a04"}}, {"type": "Feature", "geometry": {"type": "Point", "coordinates": [-0.2012376, 5.5571096]}, "properties": {"id": "1b7547d8-75f9-41e9-8b1c-86fefeccc84a", "name": "Kekele Madina Polyclinic", "type": "hospital", "region": "Greater Accra", "city": "accra", "desert_score": 0.395, "desert_label": "Moderate Desert", "has_icu": false, "has_surgery": false, "has_emergency": false, "accepts_vol": false, "doctors": 0, "beds": 0, "completeness": 0.433, "has_anomaly": false, "color": "#ca8a04"}}, {"type": "Feature", "geometry": {"type": "Point", "coordinates": [-0.1690967, 5.7042433]}, "properties": {"id": "1ba01050-cf1f-4475-b26c-b0e802370935", "name": "Phoenix Healthcare", "type": "clinic", "region": "Greater Accra", "city": "adenta", "desert_score": 0.395, "desert_label": "Moderate Desert", "has_icu": false, "has_surgery": false, "has_emergency": false, "accepts_vol": false, "doctors": 0, "beds": 0, "completeness": 0.517, "has_anomaly": false, "color": "#ca8a04"}}, {"type": "Feature", "geometry": {"type": "Point", "coordinates": [-0.2012376, 5.5571096]}, "properties": {"id": "1bb9a3ed-9a17-403e-be4b-ff2b063376c6", "name": "Nk-Salem Medical Centre", "type": "hospital", "region": "Greater Accra", "city": "accra", "desert_score": 0.395, "desert_label": "Moderate Desert", "has_icu": false, "has_surgery": false, "has_emergency": false, "accepts_vol": false, "doctors": 0, "beds": 0, "completeness": 0.6, "has_anomaly": false, "color": "#ca8a04"}}, {"type": "Feature", "geometry": {"type": "Point", "coordinates": [-0.2012376, 5.5571096]}, "properties": {"id": "1bc67adf-3639-4973-9df3-742c32e21356", "name": "Rabito Clinic Limited", "type": "clinic", "region": "Greater Accra", "city": "accra", "desert_score": 0.395, "desert_label": "Moderate Desert", "has_icu": false, "has_surgery": false, "has_emergency": false, "accepts_vol": false, "doctors": 0, "beds": 0, "completeness": 0.6, "has_anomaly": false, "color": "#ca8a04"}}, {"type": "Feature", "geometry": {"type": "Point", "coordinates": [-0.9585242, 5.4279249]}, "properties": {"id": "1bd41ae7-6eb3-40e1-bb22-7013a7967a24", "name": "Ajumako Hospital", "type": "hospital", "region": "Central", "city": "ajumako", "desert_score": 0.4587, "desert_label": "Moderate Desert", "has_icu": false, "has_surgery": false, "has_emergency": false, "accepts_vol": false, "doctors": 0, "beds": 0, "completeness": 0.433, "has_anomaly": false, "color": "#ca8a04"}}, {"type": "Feature", "geometry": {"type": "Point", "coordinates": [-0.2012376, 5.5571096]}, "properties": {"id": "1c19bab3-cca7-4ebf-8eb7-c095ac0cb3e5", "name": "Heel International Homeopathic Clinic", "type": "clinic", "region": "Greater Accra", "city": "accra", "desert_score": 0.395, "desert_label": "Moderate Desert", "has_icu": false, "has_surgery": false, "has_emergency": false, "accepts_vol": false, "doctors": 0, "beds": 0, "completeness": 0.475, "has_anomaly": false, "color": "#ca8a04"}}, {"type": "Feature", "geometry": {"type": "Point", "coordinates": [-0.2012376, 5.5571096]}, "properties": {"id": "1c6db0ed-d7dd-4d2e-af05-7991fe488184", "name": "Rivers Dental Ghana", "type": "clinic", "region": "Greater Accra", "city": "accra", "desert_score": 0.395, "desert_label": "Moderate Desert", "has_icu": false, "has_surgery": false, "has_emergency": false, "accepts_vol": false, "doctors": 0, "beds": 0, "completeness": 0.517, "has_anomaly": false, "color": "#ca8a04"}}, {"type": "Feature", "geometry": {"type": "Point", "coordinates": [-1.992426, 5.310935]}, "properties": {"id": "1ce9b045-06f4-46a4-96e3-d67c7ab14c01", "name": "Tarkwa Municipal Hospital", "type": "hospital", "region": "Western", "city": "tarkwa", "desert_score": 0.4741, "desert_label": "Moderate Desert", "has_icu": false, "has_surgery": false, "has_emergency": true, "accepts_vol": false, "doctors": 0, "beds": 152, "completeness": 0.6, "has_anomaly": false, "color": "#ca8a04"}}, {"type": "Feature", "geometry": {"type": "Point", "coordinates": [-1.0232, 7.9465]}, "properties": {"id": "1d0ee1ff-f69e-46da-b58d-6a3158d9d6b5", "name": "Beaver Medical", "type": "clinic", "region": "Unknown", "city": "", "desert_score": 0.503, "desert_label": "Moderate Desert", "has_icu": false, "has_surgery": false, "has_emergency": true, "accepts_vol": false, "doctors": 0, "beds": 0, "completeness": 0.433, "has_anomaly": false, "color": "#ca8a04"}}, {"type": "Feature", "geometry": {"type": "Point", "coordinates": [-0.987764, 7.753515]}, "properties": {"id": "1e1990d6-c82b-4a96-b703-131c9b7370d4", "name": "ATEBUBU DISTRICT HOSPITAL", "type": "hospital", "region": "Brong-Ahafo", "city": "atebubu", "desert_score": 0.3238, "desert_label": "At Risk", "has_icu": false, "has_surgery": false, "has_emergency": false, "accepts_vol": false, "doctors": 0, "beds": 0, "completeness": 0.375, "has_anomaly": false, "color": "#16a34a"}}, {"type": "Feature", "geometry": {"type": "Point", "coordinates": [-1.6233086, 6.6985605]}, "properties": {"id": "1e270cec-084e-4409-8edd-3b58e8513657", "name": "Saint Luke Hospital, Kasei", "type": "hospital", "region": "Ashanti", "city": "kumasi", "desert_score": 0.4656, "desert_label": "Moderate Desert", "has_icu": false, "has_surgery": true, "has_emergency": true, "accepts_vol": false, "doctors": 0, "beds": 70, "completeness": 0.875, "has_anomaly": false, "color": "#ca8a04"}}, {"type": "Feature", "geometry": {"type": "Point", "coordinates": [-0.3552492, 5.8197241]}, "properties": {"id": "1e3c2e6d-0df0-40a6-b99a-6340b84fb4a7", "name": "New Life Hospital", "type": "hospital", "region": "Unknown", "city": "adoagyiri adeiso", "desert_score": 0.503, "desert_label": "Moderate Desert", "has_icu": false, "has_surgery": false, "has_emergency": true, "accepts_vol": false, "doctors": 0, "beds": 0, "completeness": 0.433, "has_anomaly": false, "color": "#ca8a04"}}, {"type": "Feature", "geometry": {"type": "Point", "coordinates": [-2.163816, 7.0048059]}, "properties": {"id": "1e6a0497-49a1-4755-b630-be6bbffb36f3", "name": "Alice Memorial Maternity Clinic - Ghana", "type": "clinic", "region": "Ashanti", "city": "tepa", "desert_score": 0.4656, "desert_label": "Moderate Desert", "has_icu": false, "has_surgery": false, "has_emergency": false, "accepts_vol": false, "doctors": 0, "beds": 0, "completeness": 0.433, "has_anomaly": false, "color": "#ca8a04"}}, {"type": "Feature", "geometry": {"type": "Point", "coordinates": [-0.2012376, 5.5571096]}, "properties": {"id": "1e8eb130-4106-44c3-ad8d-2cc4c895e322", "name": "House to House Ralph Medical Laboratory Service", "type": "clinic", "region": "Greater Accra", "city": "accra", "desert_score": 0.395, "desert_label": "Moderate Desert", "has_icu": false, "has_surgery": false, "has_emergency": false, "accepts_vol": false, "doctors": 0, "beds": 0, "completeness": 0.558, "has_anomaly": false, "color": "#ca8a04"}}, {"type": "Feature", "geometry": {"type": "Point", "coordinates": [0.276692, 6.887494]}, "properties": {"id": "1ea0dfd7-a401-4458-8bc4-d6323f303a47", "name": "Anfoega Catholic Hospital", "type": "hospital", "region": "Volta", "city": "anfoega", "desert_score": 0.4853, "desert_label": "Moderate Desert", "has_icu": false, "has_surgery": false, "has_emergency": false, "accepts_vol": false, "doctors": 0, "beds": 0, "completeness": 0.433, "has_anomaly": false, "color": "#ca8a04"}}, {"type": "Feature", "geometry": {"type": "Point", "coordinates": [-0.2012376, 5.5571096]}, "properties": {"id": "1f1c65e2-6178-43dd-b11c-e041ca92f1cc", "name": "Eye Hospital In Accra", "type": "hospital", "region": "Greater Accra", "city": "accra", "desert_score": 0.395, "desert_label": "Moderate Desert", "has_icu": false, "has_surgery": true, "has_emergency": false, "accepts_vol": false, "doctors": 0, "beds": 0, "completeness": 0.6, "has_anomaly": false, "color": "#ca8a04"}}, {"type": "Feature", "geometry": {"type": "Point", "coordinates": [-0.2012376, 5.5571096]}, "properties": {"id": "1f24fda4-82cb-471b-a303-de473477fe33", "name": "Ghana Police Hospital", "type": "hospital", "region": "Greater Accra", "city": "accra", "desert_score": 0.395, "desert_label": "Moderate Desert", "has_icu": false, "has_surgery": false, "has_emergency": false, "accepts_vol": false, "doctors": 0, "beds": 0, "completeness": 0.708, "has_anomaly": false, "color": "#ca8a04"}}, {"type": "Feature", "geometry": {"type": "Point", "coordinates": [-0.2012376, 5.5571096]}, "properties": {"id": "1f3931ae-03b1-4ac1-9923-8c9b970b0194", "name": "Upscale Angels Fertility", "type": "clinic", "region": "Greater Accra", "city": "accra", "desert_score": 0.395, "desert_label": "Moderate Desert", "has_icu": false, "has_surgery": false, "has_emergency": false, "accepts_vol": false, "doctors": 0, "beds": 0, "completeness": 0.683, "has_anomaly": false, "color": "#ca8a04"}}, {"type": "Feature", "geometry": {"type": "Point", "coordinates": [-0.1617155, 5.6354803]}, "properties": {"id": "1f678b0a-e375-4762-aa3f-1518f4c4aaa2", "name": "LEDing Medical Lab", "type": "clinic", "region": "Greater Accra", "city": "east legon", "desert_score": 0.395, "desert_label": "Moderate Desert", "has_icu": false, "has_surgery": false, "has_emergency": false, "accepts_vol": false, "doctors": 0, "beds": 0, "completeness": 0.517, "has_anomaly": false, "color": "#ca8a04"}}, {"type": "Feature", "geometry": {"type": "Point", "coordinates": [-0.2012376, 5.5571096]}, "properties": {"id": "1f84d6f9-e810-48b4-96b9-a4724e86970d", "name": "Princess Louise Marie childrens hospital", "type": "hospital", "region": "Greater Accra", "city": "accra", "desert_score": 0.395, "desert_label": "Moderate Desert", "has_icu": false, "has_surgery": false, "has_emergency": false, "accepts_vol": false, "doctors": 0, "beds": 0, "completeness": 0.25, "has_anomaly": false, "color": "#ca8a04"}}, {"type": "Feature", "geometry": {"type": "Point", "coordinates": [-0.2012376, 5.5571096]}, "properties": {"id": "1fb9cd4a-c8f1-46e5-95f6-f56db2dc42c9", "name": "Tumiwura Herbal Research & Clinic", "type": "hospital", "region": "Greater Accra", "city": "accra", "desert_score": 0.395, "desert_label": "Moderate Desert", "has_icu": false, "has_surgery": false, "has_emergency": false, "accepts_vol": false, "doctors": 0, "beds": 0, "completeness": 0.683, "has_anomaly": false, "color": "#ca8a04"}}, {"type": "Feature", "geometry": {"type": "Point", "coordinates": [-1.6233086, 6.6985605]}, "properties": {"id": "2004f623-ecb1-4995-85bb-8432a0e2b95f", "name": "Prince Emmanuel Clinic - Old Tafo near OKESS, Kumasi, Ghana", "type": "clinic", "region": "Ashanti", "city": "kumasi", "desert_score": 0.4656, "desert_label": "Moderate Desert", "has_icu": false, "has_surgery": false, "has_emergency": false, "accepts_vol": false, "doctors": 0, "beds": 0, "completeness": 0.392, "has_anomaly": false, "color": "#ca8a04"}}, {"type": "Feature", "geometry": {"type": "Point", "coordinates": [-0.2012376, 5.5571096]}, "properties": {"id": "202eceb4-220f-4872-adfb-d3a1a896ea16", "name": "Awuss Health", "type": "clinic", "region": "Greater Accra", "city": "accra", "desert_score": 0.395, "desert_label": "Moderate Desert", "has_icu": false, "has_surgery": false, "has_emergency": false, "accepts_vol": false, "doctors": 0, "beds": 0, "completeness": 0.475, "has_anomaly": false, "color": "#ca8a04"}}, {"type": "Feature", "geometry": {"type": "Point", "coordinates": [-0.2012376, 5.5571096]}, "properties": {"id": "2039b38c-7e0b-42f2-8d7d-e68316a0c056", "name": "Rophe Specialist Care", "type": "clinic", "region": "Greater Accra", "city": "accra", "desert_score": 0.395, "desert_label": "Moderate Desert", "has_icu": false, "has_surgery": false, "has_emergency": false, "accepts_vol": false, "doctors": 0, "beds": 0, "completeness": 0.542, "has_anomaly": false, "color": "#ca8a04"}}, {"type": "Feature", "geometry": {"type": "Point", "coordinates": [-0.2012376, 5.5571096]}, "properties": {"id": "2092a35c-8a2f-431e-99ba-e00a5985265c", "name": "Peace And Love Hospital - Accra", "type": "hospital", "region": "Greater Accra", "city": "accra", "desert_score": 0.395, "desert_label": "Moderate Desert", "has_icu": false, "has_surgery": false, "has_emergency": false, "accepts_vol": false, "doctors": 0, "beds": 0, "completeness": 0.292, "has_anomaly": false, "color": "#ca8a04"}}, {"type": "Feature", "geometry": {"type": "Point", "coordinates": [-0.1617155, 5.6354803]}, "properties": {"id": "20e6b0bd-cae8-4c17-b3d3-c5810837fa93", "name": "Busybitesdentalgh", "type": "dentist", "region": "Greater Accra", "city": "east legon", "desert_score": 0.395, "desert_label": "Moderate Desert", "has_icu": false, "has_surgery": false, "has_emergency": false, "accepts_vol": false, "doctors": 0, "beds": 0, "completeness": 0.683, "has_anomaly": false, "color": "#ca8a04"}}, {"type": "Feature", "geometry": {"type": "Point", "coordinates": [-0.1638293, 5.6494423]}, "properties": {"id": "210c5f1b-70cc-4274-90b4-79334e7b7aad", "name": "Mempeasem Health Centre", "type": "clinic", "region": "Greater Accra", "city": "mempeasem", "desert_score": 0.395, "desert_label": "Moderate Desert", "has_icu": false, "has_surgery": false, "has_emergency": false, "accepts_vol": false, "doctors": 0, "beds": 0, "completeness": 0.517, "has_anomaly": false, "color": "#ca8a04"}}, {"type": "Feature", "geometry": {"type": "Point", "coordinates": [-1.0665974, 9.4324676]}, "properties": {"id": "213686a6-b45e-4957-8e06-3f6b4da7c12d", "name": "Tolon District Hospital", "type": "hospital", "region": "Northern", "city": "tolon", "desert_score": 0.4668, "desert_label": "Moderate Desert", "has_icu": false, "has_surgery": false, "has_emergency": false, "accepts_vol": false, "doctors": 0, "beds": 0, "completeness": 0.375, "has_anomaly": false, "color": "#ca8a04"}}, {"type": "Feature", "geometry": {"type": "Point", "coordinates": [-1.1626875, 6.7712521]}, "properties": {"id": "21543283-64fa-4a08-a2d5-db985516d3b8", "name": "Amantenaman Health Centre", "type": "clinic", "region": "Ashanti", "city": "nyinamponase", "desert_score": 0.4656, "desert_label": "Moderate Desert", "has_icu": false, "has_surgery": false, "has_emergency": false, "accepts_vol": false, "doctors": 0, "beds": 0, "completeness": 0.392, "has_anomaly": false, "color": "#ca8a04"}}, {"type": "Feature", "geometry": {"type": "Point", "coordinates": [-1.6233086, 6.6985605]}, "properties": {"id": "2162ce4c-973d-4124-9be3-001cdf1bc6c2", "name": "Prime Diagnostics and Eye-care", "type": "clinic", "region": "Ashanti", "city": "kumasi", "desert_score": 0.4656, "desert_label": "Moderate Desert", "has_icu": false, "has_surgery": false, "has_emergency": false, "accepts_vol": false, "doctors": 0, "beds": 0, "completeness": 0.517, "has_anomaly": false, "color": "#ca8a04"}}, {"type": "Feature", "geometry": {"type": "Point", "coordinates": [-1.0232, 7.9465]}, "properties": {"id": "219a479f-6c59-4982-bd9b-3789c8ddcf34", "name": "Manhyia District Hospital", "type": "hospital", "region": "Ashanti", "city": "", "desert_score": 0.4656, "desert_label": "Moderate Desert", "has_icu": false, "has_surgery": false, "has_emergency": false, "accepts_vol": false, "doctors": 0, "beds": 0, "completeness": 0.333, "has_anomaly": false, "color": "#ca8a04"}}, {"type": "Feature", "geometry": {"type": "Point", "coordinates": [-1.6907448, 5.5623403]}, "properties": {"id": "220eef40-1e00-470b-ad51-22eadb599653", "name": "Ateiku Christian Hospital", "type": "hospital", "region": "Unknown", "city": "ateiku", "desert_score": 0.503, "desert_label": "Moderate Desert", "has_icu": false, "has_surgery": false, "has_emergency": false, "accepts_vol": false, "doctors": 0, "beds": 0, "completeness": 0.292, "has_anomaly": false, "color": "#ca8a04"}}, {"type": "Feature", "geometry": {"type": "Point", "coordinates": [-0.2012376, 5.5571096]}, "properties": {"id": "22f1c1f8-54b2-4ea3-8e72-d96dfcfe8897", "name": "Medlab", "type": "clinic", "region": "Greater Accra", "city": "accra", "desert_score": 0.395, "desert_label": "Moderate Desert", "has_icu": false, "has_surgery": false, "has_emergency": false, "accepts_vol": false, "doctors": 0, "beds": 0, "completeness": 0.517, "has_anomaly": false, "color": "#ca8a04"}}, {"type": "Feature", "geometry": {"type": "Point", "coordinates": [-0.1824391, 5.5605929]}, "properties": {"id": "2330ed5b-cc1a-4aaa-86ee-2a041176905a", "name": "Sonotech", "type": "clinic", "region": "Greater Accra", "city": "osu", "desert_score": 0.395, "desert_label": "Moderate Desert", "has_icu": false, "has_surgery": false, "has_emergency": false, "accepts_vol": false, "doctors": 0, "beds": 0, "completeness": 0.292, "has_anomaly": false, "color": "#ca8a04"}}, {"type": "Feature", "geometry": {"type": "Point", "coordinates": [-1.0232, 7.9465]}, "properties": {"id": "233281fa-d166-4f00-b433-2358367a5251", "name": "Ama Dansowaa Maternity Home", "type": "clinic", "region": "Unknown", "city": "", "desert_score": 0.503, "desert_label": "Moderate Desert", "has_icu": false, "has_surgery": false, "has_emergency": false, "accepts_vol": false, "doctors": 0, "beds": 0, "completeness": 0.433, "has_anomaly": false, "color": "#ca8a04"}}, {"type": "Feature", "geometry": {"type": "Point", "coordinates": [-1.2430793, 5.107467]}, "properties": {"id": "2353e3b9-a809-4062-9481-05305d49a679", "name": "Cape Coast Metropolitan Hospital", "type": "hospital", "region": "Central", "city": "cape coast", "desert_score": 0.4587, "desert_label": "Moderate Desert", "has_icu": false, "has_surgery": false, "has_emergency": false, "accepts_vol": false, "doctors": 0, "beds": 0, "completeness": 0.392, "has_anomaly": false, "color": "#ca8a04"}}, {"type": "Feature", "geometry": {"type": "Point", "coordinates": [-0.2564276, 5.6033762]}, "properties": {"id": "239ed240-fd3c-4963-b766-58051814f4ab", "name": "MAB International Hospital", "type": "hospital", "region": "Greater Accra", "city": "darkuman nyamekye", "desert_score": 0.395, "desert_label": "Moderate Desert", "has_icu": false, "has_surgery": true, "has_emergency": true, "accepts_vol": false, "doctors": 0, "beds": 100, "completeness": 0.85, "has_anomaly": false, "color": "#ca8a04"}}, {"type": "Feature", "geometry": {"type": "Point", "coordinates": [-0.2012376, 5.5571096]}, "properties": {"id": "23d822f9-64d9-48e1-9930-2d034d09db73", "name": "LaserGlow Dental Clinic", "type": "dentist", "region": "Greater Accra", "city": "accra", "desert_score": 0.395, "desert_label": "Moderate Desert", "has_icu": false, "has_surgery": false, "has_emergency": false, "accepts_vol": false, "doctors": 0, "beds": 0, "completeness": 0.683, "has_anomaly": false, "color": "#ca8a04"}}, {"type": "Feature", "geometry": {"type": "Point", "coordinates": [-1.5935484, 6.6331291]}, "properties": {"id": "246077db-2fae-4817-9c1f-2d523c95fc54", "name": "National Nuclear Medicine and Radiotherapy Centre", "type": "hospital", "region": "Ashanti", "city": "dompoase", "desert_score": 0.4656, "desert_label": "Moderate Desert", "has_icu": false, "has_surgery": false, "has_emergency": false, "accepts_vol": false, "doctors": 0, "beds": 0, "completeness": 0.725, "has_anomaly": false, "color": "#ca8a04"}}, {"type": "Feature", "geometry": {"type": "Point", "coordinates": [0.0176784, 5.9244617]}, "properties": {"id": "24a36579-0841-4bfb-ab45-2411d86d8d36", "name": "St. Andrew Catholic Hospital", "type": "hospital", "region": "Greater Accra", "city": "kordiabe", "desert_score": 0.395, "desert_label": "Moderate Desert", "has_icu": false, "has_surgery": false, "has_emergency": false, "accepts_vol": false, "doctors": 0, "beds": 0, "completeness": 0.392, "has_anomaly": false, "color": "#ca8a04"}}, {"type": "Feature", "geometry": {"type": "Point", "coordinates": [-1.6233086, 6.6985605]}, "properties": {"id": "25026ce8-6947-4c7d-8d00-c5ba3bb59fd6", "name": "MEDsource Diagnostic Centre", "type": "clinic", "region": "Ashanti", "city": "kumasi", "desert_score": 0.4656, "desert_label": "Moderate Desert", "has_icu": false, "has_surgery": false, "has_emergency": false, "accepts_vol": false, "doctors": 0, "beds": 0, "completeness": 0.25, "has_anomaly": false, "color": "#ca8a04"}}, {"type": "Feature", "geometry": {"type": "Point", "coordinates": [-1.6233086, 6.6985605]}, "properties": {"id": "25423a17-d363-4bae-b5ab-4d2541e5c363", "name": "Destiny Hospital", "type": "hospital", "region": "Ashanti", "city": "kumasi", "desert_score": 0.4656, "desert_label": "Moderate Desert", "has_icu": false, "has_surgery": false, "has_emergency": false, "accepts_vol": false, "doctors": 0, "beds": 0, "completeness": 0.475, "has_anomaly": false, "color": "#ca8a04"}}, {"type": "Feature", "geometry": {"type": "Point", "coordinates": [-0.3306792, 5.5792263]}, "properties": {"id": "258091c5-8bf0-46a5-a83b-3306e9cc6df1", "name": "Atlantic Eye Clinic - ICare", "type": "clinic", "region": "Greater Accra", "city": "weija", "desert_score": 0.395, "desert_label": "Moderate Desert", "has_icu": false, "has_surgery": false, "has_emergency": false, "accepts_vol": false, "doctors": 0, "beds": 0, "completeness": 0.642, "has_anomaly": false, "color": "#ca8a04"}}, {"type": "Feature", "geometry": {"type": "Point", "coordinates": [-0.2012376, 5.5571096]}, "properties": {"id": "2635c308-ff28-4630-9724-136937c9062f", "name": "Sweden Ghana Medical Centre-SGMC", "type": "hospital", "region": "Greater Accra", "city": "accra", "desert_score": 0.395, "desert_label": "Moderate Desert", "has_icu": false, "has_surgery": false, "has_emergency": false, "accepts_vol": false, "doctors": 0, "beds": 0, "completeness": 0.725, "has_anomaly": false, "color": "#ca8a04"}}, {"type": "Feature", "geometry": {"type": "Point", "coordinates": [-0.8423986, 9.4051992]}, "properties": {"id": "267201ca-e925-4d64-b13e-0036bb32b20b", "name": "Azara Tampulimah Herbal Clinic", "type": "clinic", "region": "Northern", "city": "tamale", "desert_score": 0.4668, "desert_label": "Moderate Desert", "has_icu": false, "has_surgery": false, "has_emergency": false, "accepts_vol": false, "doctors": 0, "beds": 0, "completeness": 0.558, "has_anomaly": false, "color": "#ca8a04"}}, {"type": "Feature", "geometry": {"type": "Point", "coordinates": [-0.8487322, 10.7853963]}, "properties": {"id": "26921090-d867-4ad9-9228-310b654e02a5", "name": "Tindonsobligo Clinic", "type": "hospital", "region": "Upper East", "city": "bolgatanga", "desert_score": 0.5921, "desert_label": "Severe Desert", "has_icu": false, "has_surgery": false, "has_emergency": false, "accepts_vol": false, "doctors": 0, "beds": 0, "completeness": 0.433, "has_anomaly": false, "color": "#ea580c"}}, {"type": "Feature", "geometry": {"type": "Point", "coordinates": [-0.2012376, 5.5571096]}, "properties": {"id": "26a2f21f-801b-4ed7-b4cb-c4df87dcc4f7", "name": "HS Daan Herbal Clinic", "type": "clinic", "region": "Greater Accra", "city": "accra", "desert_score": 0.395, "desert_label": "Moderate Desert", "has_icu": false, "has_surgery": false, "has_emergency": false, "accepts_vol": false, "doctors": 0, "beds": 0, "completeness": 0.642, "has_anomaly": false, "color": "#ca8a04"}}, {"type": "Feature", "geometry": {"type": "Point", "coordinates": [-0.2012376, 5.5571096]}, "properties": {"id": "26b488e8-cf75-4934-9f2a-9086357b0316", "name": "Accra Physiotherapy & Sports Injury Clinic", "type": "clinic", "region": "Greater Accra", "city": "accra", "desert_score": 0.395, "desert_label": "Moderate Desert", "has_icu": false, "has_surgery": false, "has_emergency": false, "accepts_vol": false, "doctors": 0, "beds": 0, "completeness": 0.392, "has_anomaly": false, "color": "#ca8a04"}}, {"type": "Feature", "geometry": {"type": "Point", "coordinates": [-1.992426, 5.310935]}, "properties": {"id": "26dfac77-2ca3-4ee3-87d7-59999aed91ce", "name": "Redeemer Hospital", "type": "hospital", "region": "Western", "city": "tarkwa", "desert_score": 0.4741, "desert_label": "Moderate Desert", "has_icu": false, "has_surgery": false, "has_emergency": false, "accepts_vol": false, "doctors": 0, "beds": 0, "completeness": 0.208, "has_anomaly": false, "color": "#ca8a04"}}, {"type": "Feature", "geometry": {"type": "Point", "coordinates": [-0.2614572, 6.100334]}, "properties": {"id": "26edd312-c9d6-41d0-ab56-c45ba45d59b5", "name": "Synlab Ghana (Koforidua Depot)", "type": "hospital", "region": "Eastern", "city": "koforidua", "desert_score": 0.4346, "desert_label": "Moderate Desert", "has_icu": false, "has_surgery": false, "has_emergency": false, "accepts_vol": false, "doctors": 0, "beds": 0, "completeness": 0.517, "has_anomaly": false, "color": "#ca8a04"}}, {"type": "Feature", "geometry": {"type": "Point", "coordinates": [-1.7519316, 4.887401]}, "properties": {"id": "271a9f53-c9e1-406a-84f7-b1bb56892254", "name": "Nagel Memorial Adventist Hospital", "type": "hospital", "region": "Western", "city": "takoradi", "desert_score": 0.4741, "desert_label": "Moderate Desert", "has_icu": false, "has_surgery": false, "has_emergency": false, "accepts_vol": false, "doctors": 0, "beds": 41, "completeness": 0.625, "has_anomaly": false, "color": "#ca8a04"}}, {"type": "Feature", "geometry": {"type": "Point", "coordinates": [-0.029529, 5.694385]}, "properties": {"id": "271b3d8c-0a74-4029-b2e9-12875ed47c88", "name": "Pleasant Medical Centre", "type": "clinic", "region": "Greater Accra", "city": "ashaiman", "desert_score": 0.395, "desert_label": "Moderate Desert", "has_icu": false, "has_surgery": false, "has_emergency": false, "accepts_vol": false, "doctors": 0, "beds": 0, "completeness": 0.558, "has_anomaly": false, "color": "#ca8a04"}}, {"type": "Feature", "geometry": {"type": "Point", "coordinates": [-0.0096771, 5.6596409]}, "properties": {"id": "27540163-2908-4229-9b57-f7f0b18d933a", "name": "Ashaiman - MDC", "type": "clinic", "region": "Greater Accra", "city": "tema", "desert_score": 0.395, "desert_label": "Moderate Desert", "has_icu": false, "has_surgery": false, "has_emergency": false, "accepts_vol": false, "doctors": 0, "beds": 0, "completeness": 0.642, "has_anomaly": false, "color": "#ca8a04"}}, {"type": "Feature", "geometry": {"type": "Point", "coordinates": [-0.8423986, 9.4051992]}, "properties": {"id": "2841fd8a-88ea-4b96-bddb-5adea58bd396", "name": "God Cares Community Hospital", "type": "hospital", "region": "Northern", "city": "tamale", "desert_score": 0.4668, "desert_label": "Moderate Desert", "has_icu": false, "has_surgery": false, "has_emergency": false, "accepts_vol": false, "doctors": 0, "beds": 0, "completeness": 0.517, "has_anomaly": false, "color": "#ca8a04"}}, {"type": "Feature", "geometry": {"type": "Point", "coordinates": [0.4688932, 6.6126598]}, "properties": {"id": "2908bb78-bac1-420c-a08b-0062f11e116f", "name": "Royal Hospital", "type": "hospital", "region": "Volta", "city": "ho", "desert_score": 0.4853, "desert_label": "Moderate Desert", "has_icu": false, "has_surgery": false, "has_emergency": false, "accepts_vol": false, "doctors": 0, "beds": 0, "completeness": 0.208, "has_anomaly": false, "color": "#ca8a04"}}, {"type": "Feature", "geometry": {"type": "Point", "coordinates": [-0.2012376, 5.5571096]}, "properties": {"id": "296b281a-0d0f-46d6-9ba1-8ed22aa4dcfb", "name": "Mssi, Korle Bu Medical Center", "type": "hospital", "region": "Greater Accra", "city": "accra", "desert_score": 0.395, "desert_label": "Moderate Desert", "has_icu": false, "has_surgery": false, "has_emergency": false, "accepts_vol": false, "doctors": 0, "beds": 0, "completeness": 0.417, "has_anomaly": false, "color": "#ca8a04"}}, {"type": "Feature", "geometry": {"type": "Point", "coordinates": [-0.2012376, 5.5571096]}, "properties": {"id": "296c059b-3577-4f48-af30-1f75358e46eb", "name": "Forever Medicals GH", "type": "hospital", "region": "Greater Accra", "city": "accra", "desert_score": 0.395, "desert_label": "Moderate Desert", "has_icu": false, "has_surgery": false, "has_emergency": false, "accepts_vol": false, "doctors": 0, "beds": 0, "completeness": 0.6, "has_anomaly": false, "color": "#ca8a04"}}, {"type": "Feature", "geometry": {"type": "Point", "coordinates": [-1.0232, 7.9465]}, "properties": {"id": "297a7cbb-950e-4e6b-b4e7-bb9420ac3999", "name": "Methodist Clinic, Amakom-lake Bosomtwe", "type": "clinic", "region": "Unknown", "city": "", "desert_score": 0.503, "desert_label": "Moderate Desert", "has_icu": false, "has_surgery": false, "has_emergency": false, "accepts_vol": false, "doctors": 0, "beds": 0, "completeness": 0.433, "has_anomaly": false, "color": "#ca8a04"}}, {"type": "Feature", "geometry": {"type": "Point", "coordinates": [-0.0119853, 8.4635789]}, "properties": {"id": "2a86a002-038f-408b-9c2b-1869ae934fb6", "name": "Kpandai District Hospital", "type": "hospital", "region": "Northern", "city": "kpandai", "desert_score": 0.4668, "desert_label": "Moderate Desert", "has_icu": false, "has_surgery": false, "has_emergency": false, "accepts_vol": false, "doctors": 0, "beds": 0, "completeness": 0.392, "has_anomaly": false, "color": "#ca8a04"}}, {"type": "Feature", "geometry": {"type": "Point", "coordinates": [-1.650084, 4.972723]}, "properties": {"id": "2b0a6d15-6802-4ee7-9ea3-f9a36c61894a", "name": "VRA HOSPITAL ABOADZE", "type": "hospital", "region": "Western", "city": "aboadze", "desert_score": 0.4741, "desert_label": "Moderate Desert", "has_icu": false, "has_surgery": false, "has_emergency": false, "accepts_vol": false, "doctors": 0, "beds": 0, "completeness": 0.392, "has_anomaly": false, "color": "#ca8a04"}}, {"type": "Feature", "geometry": {"type": "Point", "coordinates": [-0.6321497, 5.5982411]}, "properties": {"id": "2b18554c-000c-405e-ad6e-08fc3de06d60", "name": "APOWA HEALTH CENTRE", "type": "clinic", "region": "Central", "city": "agona nkwanta", "desert_score": 0.4587, "desert_label": "Moderate Desert", "has_icu": false, "has_surgery": false, "has_emergency": false, "accepts_vol": false, "doctors": 0, "beds": 0, "completeness": 0.433, "has_anomaly": false, "color": "#ca8a04"}}, {"type": "Feature", "geometry": {"type": "Point", "coordinates": [-1.2422922, 9.498855]}, "properties": {"id": "2c0f752d-ee2d-4c66-8b14-851365f938cf", "name": "Kpendua", "type": "hospital", "region": "Oti", "city": "yabologu", "desert_score": 0.4649, "desert_label": "Moderate Desert", "has_icu": false, "has_surgery": false, "has_emergency": false, "accepts_vol": false, "doctors": 0, "beds": 0, "completeness": 0.292, "has_anomaly": false, "color": "#ca8a04"}}, {"type": "Feature", "geometry": {"type": "Point", "coordinates": [-1.0232, 7.9465]}, "properties": {"id": "2c189bfd-4e58-4f00-a24d-cf30bb5f07d8", "name": "Salem Maternity Home", "type": "clinic", "region": "Western", "city": "", "desert_score": 0.4741, "desert_label": "Moderate Desert", "has_icu": false, "has_surgery": false, "has_emergency": false, "accepts_vol": false, "doctors": 0, "beds": 0, "completeness": 0.475, "has_anomaly": false, "color": "#ca8a04"}}, {"type": "Feature", "geometry": {"type": "Point", "coordinates": [-1.8951464, 5.9602024]}, "properties": {"id": "2c89e205-7720-438b-bd10-c50783a144c0", "name": "Pentecost Hospital Ayanfuri", "type": "hospital", "region": "Central", "city": "ayanfuri", "desert_score": 0.4587, "desert_label": "Moderate Desert", "has_icu": false, "has_surgery": false, "has_emergency": false, "accepts_vol": false, "doctors": 0, "beds": 0, "completeness": 0.642, "has_anomaly": false, "color": "#ca8a04"}}, {"type": "Feature", "geometry": {"type": "Point", "coordinates": [-1.9267309, 7.584846]}, "properties": {"id": "2cc3adeb-039a-4a07-9998-6c5803fe9b4e", "name": "Ahmadiyya Muslim Hospital, Techiman", "type": "hospital", "region": "Bono East", "city": "techiman", "desert_score": 0.4601, "desert_label": "Moderate Desert", "has_icu": false, "has_surgery": false, "has_emergency": true, "accepts_vol": false, "doctors": 0, "beds": 100, "completeness": 0.75, "has_anomaly": false, "color": "#ca8a04"}}, {"type": "Feature", "geometry": {"type": "Point", "coordinates": [-0.8423986, 9.4051992]}, "properties": {"id": "2ccc918e-9f34-4e24-905a-6bb1ebd64e67", "name": "Shekhinah Clinic", "type": "clinic", "region": "Northern", "city": "tamale", "desert_score": 0.4668, "desert_label": "Moderate Desert", "has_icu": false, "has_surgery": true, "has_emergency": false, "accepts_vol": true, "doctors": 0, "beds": 0, "completeness": 0.517, "has_anomaly": false, "color": "#ca8a04"}}, {"type": "Feature", "geometry": {"type": "Point", "coordinates": [-0.437491, 5.532573]}, "properties": {"id": "2d9be883-cf91-474e-804e-49b7959e82ea", "name": "Cheerful Hearts Foundation", "type": "unknown", "region": "Unknown", "city": "kasoa", "desert_score": 0.503, "desert_label": "Moderate Desert", "has_icu": false, "has_surgery": false, "has_emergency": false, "accepts_vol": false, "doctors": 0, "beds": 0, "completeness": 0.417, "has_anomaly": false, "color": "#ca8a04"}}, {"type": "Feature", "geometry": {"type": "Point", "coordinates": [-1.6894045, 6.211542]}, "properties": {"id": "2dada6f9-791c-49be-b4aa-1976f1feab56", "name": "St. Jude Hospital Gh", "type": "hospital", "region": "Ashanti", "city": "obuasi", "desert_score": 0.4656, "desert_label": "Moderate Desert", "has_icu": false, "has_surgery": true, "has_emergency": false, "accepts_vol": false, "doctors": 0, "beds": 0, "completeness": 0.625, "has_anomaly": false, "color": "#ca8a04"}}, {"type": "Feature", "geometry": {"type": "Point", "coordinates": [-0.0096771, 5.6596409]}, "properties": {"id": "2e564dd0-5de7-44e9-8d4a-561cd6ef5371", "name": "Genesis Homeopathic Clinic", "type": "clinic", "region": "Greater Accra", "city": "tema", "desert_score": 0.395, "desert_label": "Moderate Desert", "has_icu": false, "has_surgery": false, "has_emergency": false, "accepts_vol": false, "doctors": 0, "beds": 0, "completeness": 0.558, "has_anomaly": false, "color": "#ca8a04"}}, {"type": "Feature", "geometry": {"type": "Point", "coordinates": [-1.7519316, 4.887401]}, "properties": {"id": "2edeb07f-f154-4247-a8f2-ae639ce927e0", "name": "Glado Clinic Ltd - Dental Practice", "type": "clinic", "region": "Western", "city": "takoradi", "desert_score": 0.4741, "desert_label": "Moderate Desert", "has_icu": false, "has_surgery": false, "has_emergency": false, "accepts_vol": false, "doctors": 0, "beds": 0, "completeness": 0.683, "has_anomaly": false, "color": "#ca8a04"}}, {"type": "Feature", "geometry": {"type": "Point", "coordinates": [-2.3309226, 7.3384389]}, "properties": {"id": "2f1dffa5-5a85-4e27-9d4f-ca413163e0e3", "name": "Sunyani Municipal Hospital", "type": "hospital", "region": "Brong-Ahafo", "city": "sunyani", "desert_score": 0.3238, "desert_label": "At Risk", "has_icu": false, "has_surgery": false, "has_emergency": false, "accepts_vol": false, "doctors": 0, "beds": 0, "completeness": 0.475, "has_anomaly": false, "color": "#16a34a"}}, {"type": "Feature", "geometry": {"type": "Point", "coordinates": [-0.2012376, 5.5571096]}, "properties": {"id": "2f25492e-31ef-41ab-bdee-ab1a8754a286", "name": "Franklyn Medical Center", "type": "hospital", "region": "Greater Accra", "city": "accra", "desert_score": 0.395, "desert_label": "Moderate Desert", "has_icu": false, "has_surgery": false, "has_emergency": false, "accepts_vol": false, "doctors": 0, "beds": 0, "completeness": 0.375, "has_anomaly": false, "color": "#ca8a04"}}, {"type": "Feature", "geometry": {"type": "Point", "coordinates": [-1.0232, 7.9465]}, "properties": {"id": "2fa3f611-af3a-4dcb-9806-0ec25422b039", "name": "Kate Afram Clinic", "type": "clinic", "region": "Western North", "city": "", "desert_score": 0.4665, "desert_label": "Moderate Desert", "has_icu": false, "has_surgery": false, "has_emergency": false, "accepts_vol": false, "doctors": 0, "beds": 0, "completeness": 0.433, "has_anomaly": false, "color": "#ca8a04"}}, {"type": "Feature", "geometry": {"type": "Point", "coordinates": [-1.0232, 7.9465]}, "properties": {"id": "3005afff-3a9e-4f71-ae5b-019da0776b40", "name": "Sogakope District Hospital", "type": "hospital", "region": "Greater Accra", "city": "", "desert_score": 0.395, "desert_label": "Moderate Desert", "has_icu": false, "has_surgery": false, "has_emergency": false, "accepts_vol": false, "doctors": 0, "beds": 0, "completeness": 0.475, "has_anomaly": false, "color": "#ca8a04"}}, {"type": "Feature", "geometry": {"type": "Point", "coordinates": [-1.0847298, 6.8008746]}, "properties": {"id": "30eee581-f793-4189-a10d-9fec4103ec9c", "name": "Agogo Presbyterian Hospital, Asante Akim North, Agogo", "type": "hospital", "region": "Ashanti", "city": "agogo", "desert_score": 0.4656, "desert_label": "Moderate Desert", "has_icu": false, "has_surgery": false, "has_emergency": false, "accepts_vol": false, "doctors": 0, "beds": 0, "completeness": 0.583, "has_anomaly": false, "color": "#ca8a04"}}, {"type": "Feature", "geometry": {"type": "Point", "coordinates": [-0.2012376, 5.5571096]}, "properties": {"id": "315ef90a-33fb-4224-a24d-96d6c3b59314", "name": "The Smile Restore Dental Clinics Accra (26 Mango Tree Avenue, Accra, Ghana)", "type": "clinic", "region": "Greater Accra", "city": "accra", "desert_score": 0.395, "desert_label": "Moderate Desert", "has_icu": false, "has_surgery": false, "has_emergency": false, "accepts_vol": false, "doctors": 0, "beds": 0, "completeness": 0.475, "has_anomaly": false, "color": "#ca8a04"}}, {"type": "Feature", "geometry": {"type": "Point", "coordinates": [-0.2012376, 5.5571096]}, "properties": {"id": "317d2217-3dc4-4ef8-ba0a-631af3a87258", "name": "Danpong HealthCare", "type": "clinic", "region": "Greater Accra", "city": "accra", "desert_score": 0.395, "desert_label": "Moderate Desert", "has_icu": false, "has_surgery": true, "has_emergency": true, "accepts_vol": false, "doctors": 0, "beds": 0, "completeness": 0.792, "has_anomaly": false, "color": "#ca8a04"}}, {"type": "Feature", "geometry": {"type": "Point", "coordinates": [-0.0096771, 5.6596409]}, "properties": {"id": "319d19c2-133e-46ae-a6ef-9330336119a2", "name": "Tema Women\u2019s Hospital", "type": "hospital", "region": "Greater Accra", "city": "tema", "desert_score": 0.395, "desert_label": "Moderate Desert", "has_icu": false, "has_surgery": false, "has_emergency": false, "accepts_vol": false, "doctors": 0, "beds": 0, "completeness": 0.667, "has_anomaly": false, "color": "#ca8a04"}}, {"type": "Feature", "geometry": {"type": "Point", "coordinates": [-1.0232, 7.9465]}, "properties": {"id": "32644cb2-dda9-4e4c-89a0-86223d1eac9c", "name": "Afamaso Maternity Home", "type": "clinic", "region": "Ashanti", "city": "afamaso", "desert_score": 0.4656, "desert_label": "Moderate Desert", "has_icu": false, "has_surgery": false, "has_emergency": false, "accepts_vol": false, "doctors": 0, "beds": 0, "completeness": 0.433, "has_anomaly": false, "color": "#ca8a04"}}, {"type": "Feature", "geometry": {"type": "Point", "coordinates": [-1.1258229, 7.0653254]}, "properties": {"id": "32eab73c-f4ae-4d04-8a7e-9b216eb6f4e1", "name": "CHAG", "type": "unknown", "region": "Ashanti", "city": "drobonso", "desert_score": 0.4656, "desert_label": "Moderate Desert", "has_icu": false, "has_surgery": false, "has_emergency": false, "accepts_vol": false, "doctors": 0, "beds": 0, "completeness": 0.35, "has_anomaly": false, "color": "#ca8a04"}}, {"type": "Feature", "geometry": {"type": "Point", "coordinates": [-1.6840122, 6.7689172]}, "properties": {"id": "3338ada9-ca84-4adb-844e-30e210a46694", "name": "Asuofua Gov. Health Centre", "type": "hospital", "region": "Unknown", "city": "asuofia", "desert_score": 0.503, "desert_label": "Moderate Desert", "has_icu": false, "has_surgery": false, "has_emergency": false, "accepts_vol": false, "doctors": 0, "beds": 0, "completeness": 0.167, "has_anomaly": false, "color": "#ca8a04"}}, {"type": "Feature", "geometry": {"type": "Point", "coordinates": [-0.2422876, 11.0607602]}, "properties": {"id": "3388b9e2-fe11-4797-83b0-79253a284645", "name": "Azimbe Hospital", "type": "hospital", "region": "Upper East", "city": "bawku", "desert_score": 0.5921, "desert_label": "Severe Desert", "has_icu": false, "has_surgery": false, "has_emergency": false, "accepts_vol": false, "doctors": 0, "beds": 0, "completeness": 0.417, "has_anomaly": false, "color": "#ea580c"}}, {"type": "Feature", "geometry": {"type": "Point", "coordinates": [0.9910728, 5.9215688]}, "properties": {"id": "33acfb9b-e5c3-4e7e-9edf-a9197ad989f3", "name": "Keta Government Hospital", "type": "hospital", "region": "Volta", "city": "keta", "desert_score": 0.4853, "desert_label": "Moderate Desert", "has_icu": false, "has_surgery": false, "has_emergency": false, "accepts_vol": false, "doctors": 0, "beds": 0, "completeness": 0.292, "has_anomaly": false, "color": "#ca8a04"}}, {"type": "Feature", "geometry": {"type": "Point", "coordinates": [-1.6894045, 6.211542]}, "properties": {"id": "33fed4ac-8bda-4f90-8018-618b6adb6543", "name": "Obuasi RIDGE Hospital", "type": "hospital", "region": "Ashanti", "city": "obuasi", "desert_score": 0.4656, "desert_label": "Moderate Desert", "has_icu": false, "has_surgery": false, "has_emergency": false, "accepts_vol": false, "doctors": 0, "beds": 0, "completeness": 0.583, "has_anomaly": false, "color": "#ca8a04"}}, {"type": "Feature", "geometry": {"type": "Point", "coordinates": [-0.2012376, 5.5571096]}, "properties": {"id": "344786c2-39b9-4e6e-8222-fcbbdf323ed9", "name": "The Trust (SSNIT) Hospital, Osu, Accra", "type": "hospital", "region": "Greater Accra", "city": "accra", "desert_score": 0.395, "desert_label": "Moderate Desert", "has_icu": false, "has_surgery": false, "has_emergency": false, "accepts_vol": false, "doctors": 0, "beds": 0, "completeness": 0.208, "has_anomaly": false, "color": "#ca8a04"}}, {"type": "Feature", "geometry": {"type": "Point", "coordinates": [-0.2347032, 5.5816491]}, "properties": {"id": "3448fd84-c940-4b4b-98cd-c767b4180cf3", "name": "Holy Trinity Medical Centre, North Kaneshie, Accra, Ghana", "type": "clinic", "region": "Greater Accra", "city": "north kaneshie", "desert_score": 0.395, "desert_label": "Moderate Desert", "has_icu": false, "has_surgery": false, "has_emergency": false, "accepts_vol": false, "doctors": 0, "beds": 0, "completeness": 0.475, "has_anomaly": false, "color": "#ca8a04"}}, {"type": "Feature", "geometry": {"type": "Point", "coordinates": [-1.0232, 7.9465]}, "properties": {"id": "3456c118-6157-4402-bb20-9d25a828a0f9", "name": "Gloria Memorial Hospital", "type": "hospital", "region": "Ashanti", "city": "akwatialine", "desert_score": 0.4656, "desert_label": "Moderate Desert", "has_icu": false, "has_surgery": false, "has_emergency": false, "accepts_vol": false, "doctors": 0, "beds": 0, "completeness": 0.433, "has_anomaly": false, "color": "#ca8a04"}}, {"type": "Feature", "geometry": {"type": "Point", "coordinates": [-1.0232, 7.9465]}, "properties": {"id": "3459bc32-b451-4cb0-9994-7c6b20609bec", "name": "Offinso Health Centre", "type": "hospital", "region": "Ashanti", "city": "kawkawti", "desert_score": 0.4656, "desert_label": "Moderate Desert", "has_icu": false, "has_surgery": false, "has_emergency": false, "accepts_vol": false, "doctors": 0, "beds": 0, "completeness": 0.35, "has_anomaly": false, "color": "#ca8a04"}}, {"type": "Feature", "geometry": {"type": "Point", "coordinates": [-0.2012376, 5.5571096]}, "properties": {"id": "349b723c-ce3f-4aaf-955d-d2de216c92d7", "name": "La General Hospital, Accra Ghana", "type": "hospital", "region": "Greater Accra", "city": "accra", "desert_score": 0.395, "desert_label": "Moderate Desert", "has_icu": false, "has_surgery": false, "has_emergency": false, "accepts_vol": false, "doctors": 0, "beds": 0, "completeness": 0.517, "has_anomaly": false, "color": "#ca8a04"}}, {"type": "Feature", "geometry": {"type": "Point", "coordinates": [-0.2012376, 5.5571096]}, "properties": {"id": "34b21be9-5a75-4a4b-8534-82b183625647", "name": "Ayifua Clinic", "type": "clinic", "region": "Greater Accra", "city": "accra", "desert_score": 0.395, "desert_label": "Moderate Desert", "has_icu": false, "has_surgery": false, "has_emergency": false, "accepts_vol": false, "doctors": 0, "beds": 0, "completeness": 0.25, "has_anomaly": false, "color": "#ca8a04"}}, {"type": "Feature", "geometry": {"type": "Point", "coordinates": [-1.6233086, 6.6985605]}, "properties": {"id": "35386993-6861-46eb-8423-f560a40ba260", "name": "Trustcare Specialist Hospital & Fertility Center", "type": "hospital", "region": "Ashanti", "city": "kumasi", "desert_score": 0.4656, "desert_label": "Moderate Desert", "has_icu": false, "has_surgery": false, "has_emergency": false, "accepts_vol": false, "doctors": 0, "beds": 0, "completeness": 0.475, "has_anomaly": false, "color": "#ca8a04"}}, {"type": "Feature", "geometry": {"type": "Point", "coordinates": [-2.0345287, 7.0921604]}, "properties": {"id": "3542d041-63bb-442f-895d-6d56953dbb36", "name": "Bechem Government Hospital", "type": "hospital", "region": "Ahafo", "city": "bechem", "desert_score": 0.4139, "desert_label": "Moderate Desert", "has_icu": false, "has_surgery": false, "has_emergency": false, "accepts_vol": false, "doctors": 0, "beds": 155, "completeness": 0.833, "has_anomaly": false, "color": "#ca8a04"}}, {"type": "Feature", "geometry": {"type": "Point", "coordinates": [-1.7519316, 4.887401]}, "properties": {"id": "35672f06-bf70-49c4-8d92-b5ba222f7797", "name": "Twin City Clinic", "type": "clinic", "region": "Western", "city": "takoradi", "desert_score": 0.4741, "desert_label": "Moderate Desert", "has_icu": false, "has_surgery": false, "has_emergency": false, "accepts_vol": false, "doctors": 0, "beds": 0, "completeness": 0.392, "has_anomaly": false, "color": "#ca8a04"}}, {"type": "Feature", "geometry": {"type": "Point", "coordinates": [0.2884218, 8.5084345]}, "properties": {"id": "35a0ad65-75a6-425b-9131-a8ce2731b981", "name": "SOMACAS Hospital", "type": "hospital", "region": "Oti", "city": "nkwanta", "desert_score": 0.4649, "desert_label": "Moderate Desert", "has_icu": false, "has_surgery": true, "has_emergency": true, "accepts_vol": false, "doctors": 0, "beds": 0, "completeness": 0.725, "has_anomaly": false, "color": "#ca8a04"}}, {"type": "Feature", "geometry": {"type": "Point", "coordinates": [-1.0232, 7.9465]}, "properties": {"id": "35cf049f-2029-45fc-ad9d-430843a66a27", "name": "Cathedral Herbal & Fertility Clinic", "type": "clinic", "region": "Central", "city": "", "desert_score": 0.4587, "desert_label": "Moderate Desert", "has_icu": false, "has_surgery": false, "has_emergency": false, "accepts_vol": false, "doctors": 0, "beds": 0, "completeness": 0.517, "has_anomaly": false, "color": "#ca8a04"}}, {"type": "Feature", "geometry": {"type": "Point", "coordinates": [-1.0232, 7.9465]}, "properties": {"id": "35db27c1-3a1a-44cc-a3ab-714fc77d451c", "name": "SVG Africa", "type": "unknown", "region": "Unknown", "city": "", "desert_score": 0.503, "desert_label": "Moderate Desert", "has_icu": false, "has_surgery": true, "has_emergency": false, "accepts_vol": false, "doctors": 0, "beds": 0, "completeness": 0.35, "has_anomaly": false, "color": "#ca8a04"}}, {"type": "Feature", "geometry": {"type": "Point", "coordinates": [-0.2012376, 5.5571096]}, "properties": {"id": "36587029-05bf-44bc-9f9b-1951b98c75b2", "name": "American_Rejuvenation Clinic", "type": "clinic", "region": "Greater Accra", "city": "accra", "desert_score": 0.395, "desert_label": "Moderate Desert", "has_icu": false, "has_surgery": false, "has_emergency": false, "accepts_vol": false, "doctors": 0, "beds": 0, "completeness": 0.6, "has_anomaly": false, "color": "#ca8a04"}}, {"type": "Feature", "geometry": {"type": "Point", "coordinates": [-1.6233086, 6.6985605]}, "properties": {"id": "36b44000-d149-4e59-8197-dcf124df0da9", "name": "Awuradze A' Maternity Home", "type": "clinic", "region": "Ashanti", "city": "kumasi", "desert_score": 0.4656, "desert_label": "Moderate Desert", "has_icu": false, "has_surgery": false, "has_emergency": false, "accepts_vol": false, "doctors": 0, "beds": 0, "completeness": 0.433, "has_anomaly": false, "color": "#ca8a04"}}, {"type": "Feature", "geometry": {"type": "Point", "coordinates": [-1.0232, 7.9465]}, "properties": {"id": "3744391b-51fc-4dad-be4c-2057394fce1d", "name": "Cheerful Hearts Foundation", "type": "unknown", "region": "Central", "city": "", "desert_score": 0.4587, "desert_label": "Moderate Desert", "has_icu": false, "has_surgery": false, "has_emergency": false, "accepts_vol": false, "doctors": 0, "beds": 0, "completeness": 0.35, "has_anomaly": false, "color": "#ca8a04"}}, {"type": "Feature", "geometry": {"type": "Point", "coordinates": [0.477735, 7.153187]}, "properties": {"id": "37445cc0-11c4-4211-8ad1-b7b80b820f0a", "name": "Hohoe Government Hospital", "type": "hospital", "region": "Volta", "city": "hohoe", "desert_score": 0.4853, "desert_label": "Moderate Desert", "has_icu": false, "has_surgery": false, "has_emergency": false, "accepts_vol": false, "doctors": 0, "beds": 0, "completeness": 0.292, "has_anomaly": false, "color": "#ca8a04"}}, {"type": "Feature", "geometry": {"type": "Point", "coordinates": [-2.9136819, 7.2895134]}, "properties": {"id": "3776c2d9-0fcb-4b81-9fca-52fdf70086c2", "name": "Kojokumikrom Rural Clinic", "type": "hospital", "region": "Unknown", "city": "sromani", "desert_score": 0.503, "desert_label": "Moderate Desert", "has_icu": false, "has_surgery": false, "has_emergency": false, "accepts_vol": false, "doctors": 0, "beds": 0, "completeness": 0.167, "has_anomaly": false, "color": "#ca8a04"}}, {"type": "Feature", "geometry": {"type": "Point", "coordinates": [-1.992426, 5.310935]}, "properties": {"id": "378071a9-151b-4978-85f8-b8eb36d9a986", "name": "Sam Jonah Hospital", "type": "hospital", "region": "Western", "city": "tarkwa", "desert_score": 0.4741, "desert_label": "Moderate Desert", "has_icu": false, "has_surgery": false, "has_emergency": false, "accepts_vol": false, "doctors": 0, "beds": 0, "completeness": 0.25, "has_anomaly": false, "color": "#ca8a04"}}, {"type": "Feature", "geometry": {"type": "Point", "coordinates": [-0.2012376, 5.5571096]}, "properties": {"id": "383494e9-186f-4f9f-8fbd-4b7d5d2ca2ec", "name": "Gaslidd Ghana", "type": "unknown", "region": "Greater Accra", "city": "accra", "desert_score": 0.395, "desert_label": "Moderate Desert", "has_icu": false, "has_surgery": false, "has_emergency": false, "accepts_vol": false, "doctors": 0, "beds": 0, "completeness": 0.475, "has_anomaly": false, "color": "#ca8a04"}}, {"type": "Feature", "geometry": {"type": "Point", "coordinates": [-1.5943295, 6.7275244]}, "properties": {"id": "387f72a3-cac9-4990-b557-49d9e9d28dd2", "name": "KEFAM HEALTH SERVICES", "type": "hospital", "region": "Ashanti", "city": "buokrom", "desert_score": 0.4656, "desert_label": "Moderate Desert", "has_icu": false, "has_surgery": false, "has_emergency": false, "accepts_vol": false, "doctors": 0, "beds": 0, "completeness": 0.392, "has_anomaly": false, "color": "#ca8a04"}}, {"type": "Feature", "geometry": {"type": "Point", "coordinates": [-0.1046646, 5.8800281]}, "properties": {"id": "389f049f-2796-4a0f-b478-e1bb2071809c", "name": "Shai-Osudoku District Hospital", "type": "hospital", "region": "Greater Accra", "city": "dodowa", "desert_score": 0.395, "desert_label": "Moderate Desert", "has_icu": false, "has_surgery": true, "has_emergency": true, "accepts_vol": false, "doctors": 0, "beds": 244, "completeness": 0.875, "has_anomaly": false, "color": "#ca8a04"}}, {"type": "Feature", "geometry": {"type": "Point", "coordinates": [-0.2012376, 5.5571096]}, "properties": {"id": "38d737f4-009e-4143-9a1b-a386f6d16dd7", "name": "Metropolis Ghana", "type": "clinic", "region": "Greater Accra", "city": "accra", "desert_score": 0.395, "desert_label": "Moderate Desert", "has_icu": false, "has_surgery": false, "has_emergency": false, "accepts_vol": false, "doctors": 0, "beds": 0, "completeness": 0.6, "has_anomaly": false, "color": "#ca8a04"}}, {"type": "Feature", "geometry": {"type": "Point", "coordinates": [0.994012, 6.233809]}, "properties": {"id": "39daae91-222f-4fb4-b83e-580b4a229fa2", "name": "St Anthony's Hospital in Dzodze Ghana", "type": "hospital", "region": "Volta", "city": "dzodze", "desert_score": 0.4853, "desert_label": "Moderate Desert", "has_icu": true, "has_surgery": true, "has_emergency": false, "accepts_vol": false, "doctors": 0, "beds": 0, "completeness": 0.6, "has_anomaly": false, "color": "#ca8a04"}}, {"type": "Feature", "geometry": {"type": "Point", "coordinates": [-0.2012376, 5.5571096]}, "properties": {"id": "3a0bbe79-0d86-4e21-8c3d-07736c2c1e15", "name": "Zoe Royal Hospital - Fertility Centre, Accra, Ghana", "type": "hospital", "region": "Greater Accra", "city": "accra", "desert_score": 0.395, "desert_label": "Moderate Desert", "has_icu": false, "has_surgery": false, "has_emergency": false, "accepts_vol": false, "doctors": 0, "beds": 0, "completeness": 0.333, "has_anomaly": false, "color": "#ca8a04"}}, {"type": "Feature", "geometry": {"type": "Point", "coordinates": [-1.0232, 7.9465]}, "properties": {"id": "3a285737-880b-49fe-903b-89f4991eb4af", "name": "Amang Health Centre", "type": "clinic", "region": "Greater Accra", "city": "", "desert_score": 0.395, "desert_label": "Moderate Desert", "has_icu": false, "has_surgery": false, "has_emergency": false, "accepts_vol": false, "doctors": 0, "beds": 0, "completeness": 0.475, "has_anomaly": false, "color": "#ca8a04"}}, {"type": "Feature", "geometry": {"type": "Point", "coordinates": [-0.2012376, 5.5571096]}, "properties": {"id": "3a51b994-67dc-4639-8974-bd27c1b91b7c", "name": "Specialist Health Ghana Dental Clinic", "type": "clinic", "region": "Greater Accra", "city": "accra", "desert_score": 0.395, "desert_label": "Moderate Desert", "has_icu": false, "has_surgery": false, "has_emergency": false, "accepts_vol": false, "doctors": 0, "beds": 0, "completeness": 0.475, "has_anomaly": false, "color": "#ca8a04"}}, {"type": "Feature", "geometry": {"type": "Point", "coordinates": [-0.0096771, 5.6596409]}, "properties": {"id": "3ac9d0f3-0a09-470e-806b-193e0f7ac590", "name": "Port Clinic", "type": "hospital", "region": "Greater Accra", "city": "tema", "desert_score": 0.395, "desert_label": "Moderate Desert", "has_icu": false, "has_surgery": false, "has_emergency": false, "accepts_vol": false, "doctors": 0, "beds": 0, "completeness": 0.433, "has_anomaly": false, "color": "#ca8a04"}}, {"type": "Feature", "geometry": {"type": "Point", "coordinates": [-0.2012376, 5.5571096]}, "properties": {"id": "3af3d3ab-7cbd-43bb-9466-6901e0fa616b", "name": "Bone Marrow Transplantation Ghana", "type": "unknown", "region": "Greater Accra", "city": "accra", "desert_score": 0.395, "desert_label": "Moderate Desert", "has_icu": false, "has_surgery": false, "has_emergency": false, "accepts_vol": false, "doctors": 0, "beds": 0, "completeness": 0.475, "has_anomaly": false, "color": "#ca8a04"}}, {"type": "Feature", "geometry": {"type": "Point", "coordinates": [-0.270272, 5.5930551]},